{"timestamp":"2026-03-06T00:03:41.203Z","CameraFeedbackMessage":{"targetSystem":0,"camIdx":0,"imgIdx":95,"lat":599284218,"lng":95793206,"altMsl":417.8399963378906,"altRel":48.529998779296875,"roll":-1.0799999237060547,"pitch":-0.7699999809265137,"yaw":334.6199951171875,"focLen":0,"flags":0,"completedCaptures":0,"msg_name":"CAMERA_FEEDBACK","CAMERA_FEEDBACK":{"targetSystem":0,"camIdx":0,"imgIdx":95,"lat":599284218,"lng":95793206,"altMsl":417.8399963378906,"altRel":48.529998779296875,"roll":-1.0799999237060547,"pitch":-0.7699999809265137,"yaw":334.6199951171875,"focLen":0,"flags":0,"completedCaptures":0}},"GimbalOrientation":{"timeBootMs":3211208,"roll":-0.008671049028635025,"pitch":-47.32369613647461,"yaw":-166.5032958984375,"yawAbsolute":168.84214782714844,"msg_name":"MOUNT_ORIENTATION","MOUNT_ORIENTATION":{"timeBootMs":3211208,"roll":-0.008671049028635025,"pitch":-47.32369613647461,"yaw":-166.5032958984375,"yawAbsolute":168.84214782714844}},"SystemTime":{"seq":407,"total":3158,"missionState":3,"missionMode":1,"missionId":0,"fenceId":0,"rallyPointsId":0,"msg_name":"MISSION_CURRENT","MISSION_CURRENT":{"seq":407,"total":3158,"missionState":3,"missionMode":1,"missionId":0,"fenceId":0,"rallyPointsId":0}},"Custom":{"dateTimeCaptureISO":"2025-06-13T07:00:01.304Z"},"hostname":"DESKTOP-NNFRBAL","synced":false,"syncAttempts":0,"lastSyncAttempt":null,"createdAt":"2026-03-06T00:03:41.203Z","_id":"0byJp1bpUmL5Fizw"}
{"timestamp":"2026-03-06T00:20:11.362Z","CameraFeedbackMessage":{"targetSystem":0,"camIdx":0,"imgIdx":177,"lat":599377433,"lng":95560071,"altMsl":471.2699890136719,"altRel":101.95999908447266,"roll":0.32999998331069946,"pitch":-3.0199999809265137,"yaw":170.13999938964844,"focLen":0,"flags":0,"completedCaptures":0,"msg_name":"CAMERA_FEEDBACK","CAMERA_FEEDBACK":{"targetSystem":0,"camIdx":0,"imgIdx":177,"lat":599377433,"lng":95560071,"altMsl":471.2699890136719,"altRel":101.95999908447266,"roll":0.32999998331069946,"pitch":-3.0199999809265137,"yaw":170.13999938964844,"focLen":0,"flags":0,"completedCaptures":0}},"GimbalOrientation":{"timeBootMs":420659,"roll":0.01670575886964798,"pitch":-46.68749237060547,"yaw":-13.4857177734375,"yawAbsolute":155.53440856933594,"msg_name":"MOUNT_ORIENTATION","MOUNT_ORIENTATION":{"timeBootMs":420659,"roll":0.01670575886964798,"pitch":-46.68749237060547,"yaw":-13.4857177734375,"yawAbsolute":155.53440856933594}},"SystemTime":{"seq":760,"total":3158,"missionState":3,"missionMode":1,"missionId":0,"fenceId":0,"rallyPointsId":0,"msg_name":"MISSION_CURRENT","MISSION_CURRENT":{"seq":760,"total":3158,"missionState":3,"missionMode":1,"missionId":0,"fenceId":0,"rallyPointsId":0}},"Custom":{"dateTimeCaptureISO":"2025-06-13T07:12:57.305Z"},"hostname":"DESKTOP-NNFRBAL","synced":false,"syncAttempts":0,"lastSyncAttempt":null,"createdAt":"2026-03-06T00:20:11.362Z","_id":"1a51OBekBQSSfVN5"}
{"timestamp":"2026-03-06T00:08:13.264Z","CameraFeedbackMessage":{"targetSystem":0,"camIdx":0,"imgIdx":120,"lat":599336326,"lng":95751407,"altMsl":448.55999755859375,"altRel":79.25,"roll":-3.309999942779541,"pitch":-2.5,"yaw":287.5400085449219,"focLen":0,"flags":0,"completedCaptures":0,"msg_name":"CAMERA_FEEDBACK","CAMERA_FEEDBACK":{"targetSystem":0,"camIdx":0,"imgIdx":120,"lat":599336326,"lng":95751407,"altMsl":448.55999755859375,"altRel":79.25,"roll":-3.309999942779541,"pitch":-2.5,"yaw":287.5400085449219,"focLen":0,"flags":0,"completedCaptures":0}},"GimbalOrientation":{"timeBootMs":332417,"roll":0.00902320072054863,"pitch":-75.04071807861328,"yaw":-90.7415771484375,"yawAbsolute":-162.8397674560547,"msg_name":"MOUNT_ORIENTATION","MOUNT_ORIENTATION":{"timeBootMs":332417,"roll":0.00902320072054863,"pitch":-75.04071807861328,"yaw":-90.7415771484375,"yawAbsolute":-162.8397674560547}},"SystemTime":{"seq":525,"total":3158,"missionState":3,"missionMode":1,"missionId":0,"fenceId":0,"rallyPointsId":0,"msg_name":"MISSION_CURRENT","MISSION_CURRENT":{"seq":525,"total":3158,"missionState":3,"missionMode":1,"missionId":0,"fenceId":0,"rallyPointsId":0}},"Custom":{"dateTimeCaptureISO":"2025-06-13T07:03:34.304Z"},"hostname":"DESKTOP-NNFRBAL","synced":false,"syncAttempts":0,"lastSyncAttempt":null,"createdAt":"2026-03-06T00:08:13.264Z","_id":"1jUap1stfctZMz9I"}
{"timestamp":"2026-03-06T00:01:56.824Z","CameraFeedbackMessage":{"targetSystem":0,"camIdx":0,"imgIdx":82,"lat":599261870,"lng":95800305,"altMsl":414.5199890136719,"altRel":45.209999084472656,"roll":3.059999942779541,"pitch":-1.2300000190734863,"yaw":10.579999923706055,"focLen":0,"flags":0,"completedCaptures":0,"msg_name":"CAMERA_FEEDBACK","CAMERA_FEEDBACK":{"targetSystem":0,"camIdx":0,"imgIdx":82,"lat":599261870,"lng":95800305,"altMsl":414.5199890136719,"altRel":45.209999084472656,"roll":3.059999942779541,"pitch":-1.2300000190734863,"yaw":10.579999923706055,"focLen":0,"flags":0,"completedCaptures":0}},"GimbalOrientation":{"timeBootMs":2497615,"roll":-0.04291040077805519,"pitch":-76.98993682861328,"yaw":-89.7747802734375,"yawAbsolute":-78.69688415527344,"msg_name":"MOUNT_ORIENTATION","MOUNT_ORIENTATION":{"timeBootMs":2497615,"roll":-0.04291040077805519,"pitch":-76.98993682861328,"yaw":-89.7747802734375,"yawAbsolute":-78.69688415527344}},"SystemTime":{"seq":331,"total":3158,"missionState":3,"missionMode":1,"missionId":0,"fenceId":0,"rallyPointsId":0,"msg_name":"MISSION_CURRENT","MISSION_CURRENT":{"seq":331,"total":3158,"missionState":3,"missionMode":1,"missionId":0,"fenceId":0,"rallyPointsId":0}},"Custom":{"dateTimeCaptureISO":"2025-06-13T06:58:40.307Z"},"hostname":"DESKTOP-NNFRBAL","synced":false,"syncAttempts":0,"lastSyncAttempt":null,"createdAt":"2026-03-06T00:01:56.824Z","_id":"1ppOk2fAWru9as7R"}
{"timestamp":"2026-03-06T00:08:28.663Z","CameraFeedbackMessage":{"targetSystem":0,"camIdx":0,"imgIdx":122,"lat":599337430,"lng":95744612,"altMsl":453.0899963378906,"altRel":83.77999877929688,"roll":-2.5299999713897705,"pitch":-2.0999999046325684,"yaw":288.54998779296875,"focLen":0,"flags":0,"completedCaptures":0,"msg_name":"CAMERA_FEEDBACK","CAMERA_FEEDBACK":{"targetSystem":0,"camIdx":0,"imgIdx":122,"lat":599337430,"lng":95744612,"altMsl":453.0899963378906,"altRel":83.77999877929688,"roll":-2.5299999713897705,"pitch":-2.0999999046325684,"yaw":288.54998779296875,"focLen":0,"flags":0,"completedCaptures":0}},"GimbalOrientation":{"timeBootMs":2383891,"roll":0.001931246486492455,"pitch":-46.67273712158203,"yaw":-166.8548583984375,"yawAbsolute":122.4307861328125,"msg_name":"MOUNT_ORIENTATION","MOUNT_ORIENTATION":{"timeBootMs":2383891,"roll":0.001931246486492455,"pitch":-46.67273712158203,"yaw":-166.8548583984375,"yawAbsolute":122.4307861328125}},"SystemTime":{"seq":537,"total":3158,"missionState":3,"missionMode":1,"missionId":0,"fenceId":0,"rallyPointsId":0,"msg_name":"MISSION_CURRENT","MISSION_CURRENT":{"seq":537,"total":3158,"missionState":3,"missionMode":1,"missionId":0,"fenceId":0,"rallyPointsId":0}},"Custom":{"dateTimeCaptureISO":"2025-06-13T07:03:46.304Z"},"hostname":"DESKTOP-NNFRBAL","synced":false,"syncAttempts":0,"lastSyncAttempt":null,"createdAt":"2026-03-06T00:08:28.663Z","_id":"28lrNDShQ1ObuL19"}
{"timestamp":"2026-03-06T00:03:26.183Z","CameraFeedbackMessage":{"targetSystem":0,"camIdx":0,"imgIdx":94,"lat":599280974,"lng":95796260,"altMsl":415.53997802734375,"altRel":46.22999954223633,"roll":-0.8199999928474426,"pitch":0.11999999731779099,"yaw":334.72998046875,"focLen":0,"flags":0,"completedCaptures":0,"msg_name":"CAMERA_FEEDBACK","CAMERA_FEEDBACK":{"targetSystem":0,"camIdx":0,"imgIdx":94,"lat":599280974,"lng":95796260,"altMsl":415.53997802734375,"altRel":46.22999954223633,"roll":-0.8199999928474426,"pitch":0.11999999731779099,"yaw":334.72998046875,"focLen":0,"flags":0,"completedCaptures":0}},"GimbalOrientation":{"timeBootMs":1278265,"roll":0.009043443016707897,"pitch":-76.46139526367188,"yaw":-91.0052490234375,"yawAbsolute":-117.17478942871094,"msg_name":"MOUNT_ORIENTATION","MOUNT_ORIENTATION":{"timeBootMs":1278265,"roll":0.009043443016707897,"pitch":-76.46139526367188,"yaw":-91.0052490234375,"yawAbsolute":-117.17478942871094}},"SystemTime":{"seq":403,"total":3158,"missionState":3,"missionMode":1,"missionId":0,"fenceId":0,"rallyPointsId":0,"msg_name":"MISSION_CURRENT","MISSION_CURRENT":{"seq":403,"total":3158,"missionState":3,"missionMode":1,"missionId":0,"fenceId":0,"rallyPointsId":0}},"Custom":{"dateTimeCaptureISO":"2025-06-13T06:59:49.804Z"},"hostname":"DESKTOP-NNFRBAL","synced":false,"syncAttempts":0,"lastSyncAttempt":null,"createdAt":"2026-03-06T00:03:26.183Z","_id":"2OmC2Qqxi6wlfadL"}
{"timestamp":"2026-03-06T00:03:01.974Z","CameraFeedbackMessage":{"targetSystem":0,"camIdx":0,"imgIdx":91,"lat":599277199,"lng":95799847,"altMsl":415.1199951171875,"altRel":45.80999755859375,"roll":-1.0399999618530273,"pitch":-0.6599999666213989,"yaw":334.8599853515625,"focLen":0,"flags":0,"completedCaptures":0,"msg_name":"CAMERA_FEEDBACK","CAMERA_FEEDBACK":{"targetSystem":0,"camIdx":0,"imgIdx":91,"lat":599277199,"lng":95799847,"altMsl":415.1199951171875,"altRel":45.80999755859375,"roll":-1.0399999618530273,"pitch":-0.6599999666213989,"yaw":334.8599853515625,"focLen":0,"flags":0,"completedCaptures":0}},"GimbalOrientation":{"timeBootMs":2419457,"roll":0.0019074617885053158,"pitch":-74.7845230102539,"yaw":-92.6751708984375,"yawAbsolute":-118.05541229248047,"msg_name":"MOUNT_ORIENTATION","MOUNT_ORIENTATION":{"timeBootMs":2419457,"roll":0.0019074617885053158,"pitch":-74.7845230102539,"yaw":-92.6751708984375,"yawAbsolute":-118.05541229248047}},"SystemTime":{"seq":385,"total":3158,"missionState":3,"missionMode":1,"missionId":0,"fenceId":0,"rallyPointsId":0,"msg_name":"MISSION_CURRENT","MISSION_CURRENT":{"seq":385,"total":3158,"missionState":3,"missionMode":1,"missionId":0,"fenceId":0,"rallyPointsId":0}},"Custom":{"dateTimeCaptureISO":"2025-06-13T06:59:30.807Z"},"hostname":"DESKTOP-NNFRBAL","synced":false,"syncAttempts":0,"lastSyncAttempt":null,"createdAt":"2026-03-06T00:03:01.974Z","_id":"2dNgmydUQZeuHfHX"}
{"timestamp":"2026-03-06T00:06:31.319Z","CameraFeedbackMessage":{"targetSystem":0,"camIdx":0,"imgIdx":113,"lat":599329275,"lng":95744000,"altMsl":448.0699768066406,"altRel":78.75999450683594,"roll":-1.6399999856948853,"pitch":-0.05999999865889549,"yaw":328.79998779296875,"focLen":0,"flags":0,"completedCaptures":0,"msg_name":"CAMERA_FEEDBACK","CAMERA_FEEDBACK":{"targetSystem":0,"camIdx":0,"imgIdx":113,"lat":599329275,"lng":95744000,"altMsl":448.0699768066406,"altRel":78.75999450683594,"roll":-1.6399999856948853,"pitch":-0.05999999865889549,"yaw":328.79998779296875,"focLen":0,"flags":0,"completedCaptures":0}},"GimbalOrientation":{"timeBootMs":3998736,"roll":-0.0005671665421687067,"pitch":-47.53683090209961,"yaw":-167.0306396484375,"yawAbsolute":162.689453125,"msg_name":"MOUNT_ORIENTATION","MOUNT_ORIENTATION":{"timeBootMs":3998736,"roll":-0.0005671665421687067,"pitch":-47.53683090209961,"yaw":-167.0306396484375,"yawAbsolute":162.689453125}},"SystemTime":{"seq":487,"total":3158,"missionState":3,"missionMode":1,"missionId":0,"fenceId":0,"rallyPointsId":0,"msg_name":"MISSION_CURRENT","MISSION_CURRENT":{"seq":487,"total":3158,"missionState":3,"missionMode":1,"missionId":0,"fenceId":0,"rallyPointsId":0}},"Custom":{"dateTimeCaptureISO":"2025-06-13T07:02:13.807Z"},"hostname":"DESKTOP-NNFRBAL","synced":false,"syncAttempts":0,"lastSyncAttempt":null,"createdAt":"2026-03-06T00:06:31.319Z","_id":"33IeBvzqsAQvr5zL"}
{"timestamp":"2026-03-05T23:58:11.930Z","CameraFeedbackMessage":{"targetSystem":0,"camIdx":0,"imgIdx":67,"lat":599270374,"lng":95822854,"altMsl":407.0799865722656,"altRel":37.77000045776367,"roll":0.550000011920929,"pitch":-2.8399999141693115,"yaw":284.3299865722656,"focLen":0,"flags":0,"completedCaptures":0,"msg_name":"CAMERA_FEEDBACK","CAMERA_FEEDBACK":{"targetSystem":0,"camIdx":0,"imgIdx":67,"lat":599270374,"lng":95822854,"altMsl":407.0799865722656,"altRel":37.77000045776367,"roll":0.550000011920929,"pitch":-2.8399999141693115,"yaw":284.3299865722656,"focLen":0,"flags":0,"completedCaptures":0}},"GimbalOrientation":{"timeBootMs":3093481,"roll":-0.003654948901385069,"pitch":-76.96147155761719,"yaw":-83.2708740234375,"yawAbsolute":-158.6576385498047,"msg_name":"MOUNT_ORIENTATION","MOUNT_ORIENTATION":{"timeBootMs":3093481,"roll":-0.003654948901385069,"pitch":-76.96147155761719,"yaw":-83.2708740234375,"yawAbsolute":-158.6576385498047}},"SystemTime":{"seq":262,"total":3158,"missionState":3,"missionMode":1,"missionId":0,"fenceId":0,"rallyPointsId":0,"msg_name":"MISSION_CURRENT","MISSION_CURRENT":{"seq":262,"total":3158,"missionState":3,"missionMode":1,"missionId":0,"fenceId":0,"rallyPointsId":0}},"Custom":{"dateTimeCaptureISO":"2025-06-13T06:55:44.807Z"},"hostname":"DESKTOP-NNFRBAL","synced":false,"syncAttempts":0,"lastSyncAttempt":null,"createdAt":"2026-03-05T23:58:11.930Z","_id":"3nlvJhZbFSnpyAFJ"}
{"timestamp":"2026-03-06T00:05:44.534Z","CameraFeedbackMessage":{"targetSystem":0,"camIdx":0,"imgIdx":108,"lat":599314480,"lng":95762017,"altMsl":439.1499938964844,"altRel":69.83999633789062,"roll":0.6599999666213989,"pitch":-5.170000076293945,"yaw":328.1000061035156,"focLen":0,"flags":0,"completedCaptures":0,"msg_name":"CAMERA_FEEDBACK","CAMERA_FEEDBACK":{"targetSystem":0,"camIdx":0,"imgIdx":108,"lat":599314480,"lng":95762017,"altMsl":439.1499938964844,"altRel":69.83999633789062,"roll":0.6599999666213989,"pitch":-5.170000076293945,"yaw":328.1000061035156,"focLen":0,"flags":0,"completedCaptures":0}},"GimbalOrientation":{"timeBootMs":2139112,"roll":0.011649721302092075,"pitch":-48.43098068237305,"yaw":-12.6947021484375,"yawAbsolute":-45.27912521362305,"msg_name":"MOUNT_ORIENTATION","MOUNT_ORIENTATION":{"timeBootMs":2139112,"roll":0.011649721302092075,"pitch":-48.43098068237305,"yaw":-12.6947021484375,"yawAbsolute":-45.27912521362305}},"SystemTime":{"seq":470,"total":3158,"missionState":3,"missionMode":1,"missionId":0,"fenceId":0,"rallyPointsId":0,"msg_name":"MISSION_CURRENT","MISSION_CURRENT":{"seq":470,"total":3158,"missionState":3,"missionMode":1,"missionId":0,"fenceId":0,"rallyPointsId":0}},"Custom":{"dateTimeCaptureISO":"2025-06-13T07:01:37.307Z"},"hostname":"DESKTOP-NNFRBAL","synced":false,"syncAttempts":0,"lastSyncAttempt":null,"createdAt":"2026-03-06T00:05:44.535Z","_id":"3omBSIlc8dvEmIzn"}
{"timestamp":"2026-03-06T00:10:55.621Z","CameraFeedbackMessage":{"targetSystem":0,"camIdx":0,"imgIdx":137,"lat":599355351,"lng":95632333,"altMsl":474.3299865722656,"altRel":105.0199966430664,"roll":-2.309999942779541,"pitch":-1.7899999618530273,"yaw":287.8299865722656,"focLen":0,"flags":0,"completedCaptures":0,"msg_name":"CAMERA_FEEDBACK","CAMERA_FEEDBACK":{"targetSystem":0,"camIdx":0,"imgIdx":137,"lat":599355351,"lng":95632333,"altMsl":474.3299865722656,"altRel":105.0199966430664,"roll":-2.309999942779541,"pitch":-1.7899999618530273,"yaw":287.8299865722656,"focLen":0,"flags":0,"completedCaptures":0}},"GimbalOrientation":{"timeBootMs":441738,"roll":0.002688885200768709,"pitch":-41.31462860107422,"yaw":-166.7669677734375,"yawAbsolute":122.06199645996094,"msg_name":"MOUNT_ORIENTATION","MOUNT_ORIENTATION":{"timeBootMs":441738,"roll":0.002688885200768709,"pitch":-41.31462860107422,"yaw":-166.7669677734375,"yawAbsolute":122.06199645996094}},"SystemTime":{"seq":593,"total":3158,"missionState":3,"missionMode":1,"missionId":0,"fenceId":0,"rallyPointsId":0,"msg_name":"MISSION_CURRENT","MISSION_CURRENT":{"seq":593,"total":3158,"missionState":3,"missionMode":1,"missionId":0,"fenceId":0,"rallyPointsId":0}},"Custom":{"dateTimeCaptureISO":"2025-06-13T07:05:42.804Z"},"hostname":"DESKTOP-NNFRBAL","synced":false,"syncAttempts":0,"lastSyncAttempt":null,"createdAt":"2026-03-06T00:10:55.621Z","_id":"3wV7g03IjgcFTWeS"}
{"timestamp":"2026-03-06T00:03:21.713Z","CameraFeedbackMessage":{"targetSystem":0,"camIdx":0,"imgIdx":93,"lat":599280438,"lng":95796771,"altMsl":415.0799865722656,"altRel":45.77000045776367,"roll":-1.3700000047683716,"pitch":-0.6299999952316284,"yaw":334.6399841308594,"focLen":0,"flags":0,"completedCaptures":0,"msg_name":"CAMERA_FEEDBACK","CAMERA_FEEDBACK":{"targetSystem":0,"camIdx":0,"imgIdx":93,"lat":599280438,"lng":95796771,"altMsl":415.0799865722656,"altRel":45.77000045776367,"roll":-1.3700000047683716,"pitch":-0.6299999952316284,"yaw":334.6399841308594,"focLen":0,"flags":0,"completedCaptures":0}},"GimbalOrientation":{"timeBootMs":684817,"roll":-0.00688151502981782,"pitch":-41.5944709777832,"yaw":-166.8548583984375,"yawAbsolute":168.4840087890625,"msg_name":"MOUNT_ORIENTATION","MOUNT_ORIENTATION":{"timeBootMs":684817,"roll":-0.00688151502981782,"pitch":-41.5944709777832,"yaw":-166.8548583984375,"yawAbsolute":168.4840087890625}},"SystemTime":{"seq":397,"total":3158,"missionState":3,"missionMode":1,"missionId":0,"fenceId":0,"rallyPointsId":0,"msg_name":"MISSION_CURRENT","MISSION_CURRENT":{"seq":397,"total":3158,"missionState":3,"missionMode":1,"missionId":0,"fenceId":0,"rallyPointsId":0}},"Custom":{"dateTimeCaptureISO":"2025-06-13T06:59:46.306Z"},"hostname":"DESKTOP-NNFRBAL","synced":false,"syncAttempts":0,"lastSyncAttempt":null,"createdAt":"2026-03-06T00:03:21.713Z","_id":"5GL2OZJ0JM9VgLSs"}
{"timestamp":"2026-03-06T00:20:31.705Z","CameraFeedbackMessage":{"targetSystem":0,"camIdx":0,"imgIdx":179,"lat":599370375,"lng":95562708,"altMsl":471.1099853515625,"altRel":101.79999542236328,"roll":2.240000009536743,"pitch":-3.429999828338623,"yaw":169.61000061035156,"focLen":0,"flags":0,"completedCaptures":0,"msg_name":"CAMERA_FEEDBACK","CAMERA_FEEDBACK":{"targetSystem":0,"camIdx":0,"imgIdx":179,"lat":599370375,"lng":95562708,"altMsl":471.1099853515625,"altRel":101.79999542236328,"roll":2.240000009536743,"pitch":-3.429999828338623,"yaw":169.61000061035156,"focLen":0,"flags":0,"completedCaptures":0}},"GimbalOrientation":{"timeBootMs":3065751,"roll":0.012235140427947044,"pitch":-47.27458953857422,"yaw":-167.2064208984375,"yawAbsolute":3.323089599609375,"msg_name":"MOUNT_ORIENTATION","MOUNT_ORIENTATION":{"timeBootMs":3065751,"roll":0.012235140427947044,"pitch":-47.27458953857422,"yaw":-167.2064208984375,"yawAbsolute":3.323089599609375}},"SystemTime":{"seq":767,"total":3158,"missionState":3,"missionMode":1,"missionId":0,"fenceId":0,"rallyPointsId":0,"msg_name":"MISSION_CURRENT","MISSION_CURRENT":{"seq":767,"total":3158,"missionState":3,"missionMode":1,"missionId":0,"fenceId":0,"rallyPointsId":0}},"Custom":{"dateTimeCaptureISO":"2025-06-13T07:13:12.807Z"},"hostname":"DESKTOP-NNFRBAL","synced":false,"syncAttempts":0,"lastSyncAttempt":null,"createdAt":"2026-03-06T00:20:31.706Z","_id":"5bRaXKrQ8jfyASGD"}
{"timestamp":"2026-03-06T00:11:52.584Z","CameraFeedbackMessage":{"targetSystem":0,"camIdx":0,"imgIdx":143,"lat":599361620,"lng":95593153,"altMsl":469.3199768066406,"altRel":100.00999450683594,"roll":0.1599999964237213,"pitch":-2.990000009536743,"yaw":287.3999938964844,"focLen":0,"flags":0,"completedCaptures":0,"msg_name":"CAMERA_FEEDBACK","CAMERA_FEEDBACK":{"targetSystem":0,"camIdx":0,"imgIdx":143,"lat":599361620,"lng":95593153,"altMsl":469.3199768066406,"altRel":100.00999450683594,"roll":0.1599999964237213,"pitch":-2.990000009536743,"yaw":287.3999938964844,"focLen":0,"flags":0,"completedCaptures":0}},"GimbalOrientation":{"timeBootMs":3708863,"roll":-0.006752188317477703,"pitch":-46.66461944580078,"yaw":-166.2396240234375,"yawAbsolute":122.15335083007812,"msg_name":"MOUNT_ORIENTATION","MOUNT_ORIENTATION":{"timeBootMs":3708863,"roll":-0.006752188317477703,"pitch":-46.66461944580078,"yaw":-166.2396240234375,"yawAbsolute":122.15335083007812}},"SystemTime":{"seq":617,"total":3158,"missionState":3,"missionMode":1,"missionId":0,"fenceId":0,"rallyPointsId":0,"msg_name":"MISSION_CURRENT","MISSION_CURRENT":{"seq":617,"total":3158,"missionState":3,"missionMode":1,"missionId":0,"fenceId":0,"rallyPointsId":0}},"Custom":{"dateTimeCaptureISO":"2025-06-13T07:06:27.804Z"},"hostname":"DESKTOP-NNFRBAL","synced":false,"syncAttempts":0,"lastSyncAttempt":null,"createdAt":"2026-03-06T00:11:52.584Z","_id":"63wDXnmoOiNWqf5p"}
{"timestamp":"2026-03-06T00:12:03.188Z","CameraFeedbackMessage":{"targetSystem":0,"camIdx":0,"imgIdx":144,"lat":599362948,"lng":95584951,"altMsl":469.7099914550781,"altRel":100.4000015258789,"roll":-2,"pitch":-2.8299999237060547,"yaw":287.8999938964844,"focLen":0,"flags":0,"completedCaptures":0,"msg_name":"CAMERA_FEEDBACK","CAMERA_FEEDBACK":{"targetSystem":0,"camIdx":0,"imgIdx":144,"lat":599362948,"lng":95584951,"altMsl":469.7099914550781,"altRel":100.4000015258789,"roll":-2,"pitch":-2.8299999237060547,"yaw":287.8999938964844,"focLen":0,"flags":0,"completedCaptures":0}},"GimbalOrientation":{"timeBootMs":838187,"roll":0.004455220885574818,"pitch":-45.64702606201172,"yaw":-13.5736083984375,"yawAbsolute":-86.25849151611328,"msg_name":"MOUNT_ORIENTATION","MOUNT_ORIENTATION":{"timeBootMs":838187,"roll":0.004455220885574818,"pitch":-45.64702606201172,"yaw":-13.5736083984375,"yawAbsolute":-86.25849151611328}},"SystemTime":{"seq":622,"total":3158,"missionState":3,"missionMode":1,"missionId":0,"fenceId":0,"rallyPointsId":0,"msg_name":"MISSION_CURRENT","MISSION_CURRENT":{"seq":622,"total":3158,"missionState":3,"missionMode":1,"missionId":0,"fenceId":0,"rallyPointsId":0}},"Custom":{"dateTimeCaptureISO":"2025-06-13T07:06:36.306Z"},"hostname":"DESKTOP-NNFRBAL","synced":false,"syncAttempts":0,"lastSyncAttempt":null,"createdAt":"2026-03-06T00:12:03.188Z","_id":"6MnQQFwLe5kwtLKm"}
{"timestamp":"2026-03-06T00:01:37.202Z","CameraFeedbackMessage":{"targetSystem":0,"camIdx":0,"imgIdx":80,"lat":599255346,"lng":95797790,"altMsl":411.55999755859375,"altRel":42.25,"roll":-1.5499999523162842,"pitch":-2.4800000190734863,"yaw":11.079999923706055,"focLen":0,"flags":0,"completedCaptures":0,"msg_name":"CAMERA_FEEDBACK","CAMERA_FEEDBACK":{"targetSystem":0,"camIdx":0,"imgIdx":80,"lat":599255346,"lng":95797790,"altMsl":411.55999755859375,"altRel":42.25,"roll":-1.5499999523162842,"pitch":-2.4800000190734863,"yaw":11.079999923706055,"focLen":0,"flags":0,"completedCaptures":0}},"GimbalOrientation":{"timeBootMs":4232268,"roll":-0.016503728926181793,"pitch":-46.03122329711914,"yaw":-166.5911865234375,"yawAbsolute":-154.61231994628906,"msg_name":"MOUNT_ORIENTATION","MOUNT_ORIENTATION":{"timeBootMs":4232268,"roll":-0.016503728926181793,"pitch":-46.03122329711914,"yaw":-166.5911865234375,"yawAbsolute":-154.61231994628906}},"SystemTime":{"seq":323,"total":3158,"missionState":3,"missionMode":1,"missionId":0,"fenceId":0,"rallyPointsId":0,"msg_name":"MISSION_CURRENT","MISSION_CURRENT":{"seq":323,"total":3158,"missionState":3,"missionMode":1,"missionId":0,"fenceId":0,"rallyPointsId":0}},"Custom":{"dateTimeCaptureISO":"2025-06-13T06:58:25.307Z"},"hostname":"DESKTOP-NNFRBAL","synced":false,"syncAttempts":0,"lastSyncAttempt":null,"createdAt":"2026-03-06T00:01:37.202Z","_id":"6vFQrGRYKFQ0d8Ie"}
{"timestamp":"2026-03-06T00:05:21.620Z","CameraFeedbackMessage":{"targetSystem":0,"camIdx":0,"imgIdx":106,"lat":599308582,"lng":95769297,"altMsl":442.25,"altRel":72.93999481201172,"roll":-0.4899999797344208,"pitch":0.7699999809265137,"yaw":328.3899841308594,"focLen":0,"flags":0,"completedCaptures":0,"msg_name":"CAMERA_FEEDBACK","CAMERA_FEEDBACK":{"targetSystem":0,"camIdx":0,"imgIdx":106,"lat":599308582,"lng":95769297,"altMsl":442.25,"altRel":72.93999481201172,"roll":-0.4899999797344208,"pitch":0.7699999809265137,"yaw":328.3899841308594,"focLen":0,"flags":0,"completedCaptures":0}},"GimbalOrientation":{"timeBootMs":3415959,"roll":-0.01609724946320057,"pitch":-76.07643127441406,"yaw":-93.1146240234375,"yawAbsolute":-125.78998565673828,"msg_name":"MOUNT_ORIENTATION","MOUNT_ORIENTATION":{"timeBootMs":3415959,"roll":-0.01609724946320057,"pitch":-76.07643127441406,"yaw":-93.1146240234375,"yawAbsolute":-125.78998565673828}},"SystemTime":{"seq":461,"total":3158,"missionState":3,"missionMode":1,"missionId":0,"fenceId":0,"rallyPointsId":0,"msg_name":"MISSION_CURRENT","MISSION_CURRENT":{"seq":461,"total":3158,"missionState":3,"missionMode":1,"missionId":0,"fenceId":0,"rallyPointsId":0}},"Custom":{"dateTimeCaptureISO":"2025-06-13T07:01:19.305Z"},"hostname":"DESKTOP-NNFRBAL","synced":false,"syncAttempts":0,"lastSyncAttempt":null,"createdAt":"2026-03-06T00:05:21.620Z","_id":"6yntaaUaA5O4sr5H"}
{"timestamp":"2026-03-06T00:21:54.425Z","CameraFeedbackMessage":{"targetSystem":0,"camIdx":0,"imgIdx":185,"lat":599362132,"lng":95552047,"altMsl":470.6099853515625,"altRel":101.29999542236328,"roll":-1.159999966621399,"pitch":-0.4399999976158142,"yaw":242.8199920654297,"focLen":0,"flags":0,"completedCaptures":0,"msg_name":"CAMERA_FEEDBACK","CAMERA_FEEDBACK":{"targetSystem":0,"camIdx":0,"imgIdx":185,"lat":599362132,"lng":95552047,"altMsl":470.6099853515625,"altRel":101.29999542236328,"roll":-1.159999966621399,"pitch":-0.4399999976158142,"yaw":242.8199920654297,"focLen":0,"flags":0,"completedCaptures":0}},"GimbalOrientation":{"timeBootMs":913848,"roll":0.0020163911394774914,"pitch":-44.35637664794922,"yaw":-166.9427490234375,"yawAbsolute":76.681640625,"msg_name":"MOUNT_ORIENTATION","MOUNT_ORIENTATION":{"timeBootMs":913848,"roll":0.0020163911394774914,"pitch":-44.35637664794922,"yaw":-166.9427490234375,"yawAbsolute":76.681640625}},"SystemTime":{"seq":793,"total":3158,"missionState":3,"missionMode":1,"missionId":0,"fenceId":0,"rallyPointsId":0,"msg_name":"MISSION_CURRENT","MISSION_CURRENT":{"seq":793,"total":3158,"missionState":3,"missionMode":1,"missionId":0,"fenceId":0,"rallyPointsId":0}},"Custom":{"dateTimeCaptureISO":"2025-06-13T07:14:16.805Z"},"hostname":"DESKTOP-NNFRBAL","synced":false,"syncAttempts":0,"lastSyncAttempt":null,"createdAt":"2026-03-06T00:21:54.425Z","_id":"7HZFZnM0hU1Ts3U1"}
{"timestamp":"2026-03-06T00:05:01.682Z","CameraFeedbackMessage":{"targetSystem":0,"camIdx":0,"imgIdx":104,"lat":599305520,"lng":95773040,"altMsl":439.8999938964844,"altRel":70.58999633789062,"roll":0.09999999403953552,"pitch":1.309999942779541,"yaw":328.5299987792969,"focLen":0,"flags":0,"completedCaptures":0,"msg_name":"CAMERA_FEEDBACK","CAMERA_FEEDBACK":{"targetSystem":0,"camIdx":0,"imgIdx":104,"lat":599305520,"lng":95773040,"altMsl":439.8999938964844,"altRel":70.58999633789062,"roll":0.09999999403953552,"pitch":1.309999942779541,"yaw":328.5299987792969,"focLen":0,"flags":0,"completedCaptures":0}},"GimbalOrientation":{"timeBootMs":821733,"roll":-0.018884649500250816,"pitch":-43.381004333496094,"yaw":-13.9251708984375,"yawAbsolute":-45.7366943359375,"msg_name":"MOUNT_ORIENTATION","MOUNT_ORIENTATION":{"timeBootMs":821733,"roll":-0.018884649500250816,"pitch":-43.381004333496094,"yaw":-13.9251708984375,"yawAbsolute":-45.7366943359375}},"SystemTime":{"seq":449,"total":3158,"missionState":3,"missionMode":1,"missionId":0,"fenceId":0,"rallyPointsId":0,"msg_name":"MISSION_CURRENT","MISSION_CURRENT":{"seq":449,"total":3158,"missionState":3,"missionMode":1,"missionId":0,"fenceId":0,"rallyPointsId":0}},"Custom":{"dateTimeCaptureISO":"2025-06-13T07:01:03.804Z"},"hostname":"DESKTOP-NNFRBAL","synced":false,"syncAttempts":0,"lastSyncAttempt":null,"createdAt":"2026-03-06T00:05:01.682Z","_id":"7kTt3QuyOVE634TI"}
{"timestamp":"2026-03-06T00:06:59.489Z","CameraFeedbackMessage":{"targetSystem":0,"camIdx":0,"imgIdx":116,"lat":599337053,"lng":95734471,"altMsl":460,"altRel":90.68999481201172,"roll":-0.7999999523162842,"pitch":2.3499999046325684,"yaw":328.30999755859375,"focLen":0,"flags":0,"completedCaptures":0,"msg_name":"CAMERA_FEEDBACK","CAMERA_FEEDBACK":{"targetSystem":0,"camIdx":0,"imgIdx":116,"lat":599337053,"lng":95734471,"altMsl":460,"altRel":90.68999481201172,"roll":-0.7999999523162842,"pitch":2.3499999046325684,"yaw":328.30999755859375,"focLen":0,"flags":0,"completedCaptures":0}},"GimbalOrientation":{"timeBootMs":3450986,"roll":0.0011905516730621457,"pitch":-49.758644104003906,"yaw":-166.7669677734375,"yawAbsolute":162.31985473632812,"msg_name":"MOUNT_ORIENTATION","MOUNT_ORIENTATION":{"timeBootMs":3450986,"roll":0.0011905516730621457,"pitch":-49.758644104003906,"yaw":-166.7669677734375,"yawAbsolute":162.31985473632812}},"SystemTime":{"seq":500,"total":3158,"missionState":3,"missionMode":1,"missionId":0,"fenceId":0,"rallyPointsId":0,"msg_name":"MISSION_CURRENT","MISSION_CURRENT":{"seq":500,"total":3158,"missionState":3,"missionMode":1,"missionId":0,"fenceId":0,"rallyPointsId":0}},"Custom":{"dateTimeCaptureISO":"2025-06-13T07:02:36.304Z"},"hostname":"DESKTOP-NNFRBAL","synced":false,"syncAttempts":0,"lastSyncAttempt":null,"createdAt":"2026-03-06T00:06:59.489Z","_id":"7yOBCIXumP3Ft96N"}
{"timestamp":"2026-03-06T00:08:38.495Z","CameraFeedbackMessage":{"targetSystem":0,"camIdx":0,"imgIdx":123,"lat":599338604,"lng":95737479,"altMsl":459.1199951171875,"altRel":89.80999755859375,"roll":-2.5799999237060547,"pitch":-4.259999752044678,"yaw":288.4700012207031,"focLen":0,"flags":0,"completedCaptures":0,"msg_name":"CAMERA_FEEDBACK","CAMERA_FEEDBACK":{"targetSystem":0,"camIdx":0,"imgIdx":123,"lat":599338604,"lng":95737479,"altMsl":459.1199951171875,"altRel":89.80999755859375,"roll":-2.5799999237060547,"pitch":-4.259999752044678,"yaw":288.4700012207031,"focLen":0,"flags":0,"completedCaptures":0}},"GimbalOrientation":{"timeBootMs":3689483,"roll":0.02019033581018448,"pitch":-39.95812225341797,"yaw":-13.3978271484375,"yawAbsolute":-85.87640380859375,"msg_name":"MOUNT_ORIENTATION","MOUNT_ORIENTATION":{"timeBootMs":3689483,"roll":0.02019033581018448,"pitch":-39.95812225341797,"yaw":-13.3978271484375,"yawAbsolute":-85.87640380859375}},"SystemTime":{"seq":543,"total":3158,"missionState":3,"missionMode":1,"missionId":0,"fenceId":0,"rallyPointsId":0,"msg_name":"MISSION_CURRENT","MISSION_CURRENT":{"seq":543,"total":3158,"missionState":3,"missionMode":1,"missionId":0,"fenceId":0,"rallyPointsId":0}},"Custom":{"dateTimeCaptureISO":"2025-06-13T07:03:54.307Z"},"hostname":"DESKTOP-NNFRBAL","synced":false,"syncAttempts":0,"lastSyncAttempt":null,"createdAt":"2026-03-06T00:08:38.495Z","_id":"8aTidGLKDWmmAyZr"}
{"timestamp":"2026-03-06T00:17:07.148Z","CameraFeedbackMessage":{"targetSystem":0,"camIdx":0,"imgIdx":158,"lat":599433826,"lng":95539294,"altMsl":483.8599853515625,"altRel":114.54999542236328,"roll":1.100000023841858,"pitch":-7.009999752044678,"yaw":169.7899932861328,"focLen":0,"flags":0,"completedCaptures":0,"msg_name":"CAMERA_FEEDBACK","CAMERA_FEEDBACK":{"targetSystem":0,"camIdx":0,"imgIdx":158,"lat":599433826,"lng":95539294,"altMsl":483.8599853515625,"altRel":114.54999542236328,"roll":1.100000023841858,"pitch":-7.009999752044678,"yaw":169.7899932861328,"focLen":0,"flags":0,"completedCaptures":0}},"GimbalOrientation":{"timeBootMs":2198392,"roll":-0.01301184855401516,"pitch":-44.946388244628906,"yaw":-166.8548583984375,"yawAbsolute":4.10198974609375,"msg_name":"MOUNT_ORIENTATION","MOUNT_ORIENTATION":{"timeBootMs":2198392,"roll":-0.01301184855401516,"pitch":-44.946388244628906,"yaw":-166.8548583984375,"yawAbsolute":4.10198974609375}},"SystemTime":{"seq":678,"total":3158,"missionState":3,"missionMode":1,"missionId":0,"fenceId":0,"rallyPointsId":0,"msg_name":"MISSION_CURRENT","MISSION_CURRENT":{"seq":678,"total":3158,"missionState":3,"missionMode":1,"missionId":0,"fenceId":0,"rallyPointsId":0}},"Custom":{"dateTimeCaptureISO":"2025-06-13T07:10:34.306Z"},"hostname":"DESKTOP-NNFRBAL","synced":false,"syncAttempts":0,"lastSyncAttempt":null,"createdAt":"2026-03-06T00:17:07.148Z","_id":"8rculUYuedWbvyLI"}
{"timestamp":"2026-03-06T00:03:06.503Z","CameraFeedbackMessage":{"targetSystem":0,"camIdx":0,"imgIdx":92,"lat":599277735,"lng":95799343,"altMsl":415,"altRel":45.689998626708984,"roll":-1.1699999570846558,"pitch":0.1599999964237213,"yaw":334.8299865722656,"focLen":0,"flags":0,"completedCaptures":0,"msg_name":"CAMERA_FEEDBACK","CAMERA_FEEDBACK":{"targetSystem":0,"camIdx":0,"imgIdx":92,"lat":599277735,"lng":95799343,"altMsl":415,"altRel":45.689998626708984,"roll":-1.1699999570846558,"pitch":0.1599999964237213,"yaw":334.8299865722656,"focLen":0,"flags":0,"completedCaptures":0}},"GimbalOrientation":{"timeBootMs":2995952,"roll":-0.00999719649553299,"pitch":-45.08665466308594,"yaw":-13.7493896484375,"yawAbsolute":-39.59020233154297,"msg_name":"MOUNT_ORIENTATION","MOUNT_ORIENTATION":{"timeBootMs":2995952,"roll":-0.00999719649553299,"pitch":-45.08665466308594,"yaw":-13.7493896484375,"yawAbsolute":-39.59020233154297}},"SystemTime":{"seq":391,"total":3158,"missionState":3,"missionMode":1,"missionId":0,"fenceId":0,"rallyPointsId":0,"msg_name":"MISSION_CURRENT","MISSION_CURRENT":{"seq":391,"total":3158,"missionState":3,"missionMode":1,"missionId":0,"fenceId":0,"rallyPointsId":0}},"Custom":{"dateTimeCaptureISO":"2025-06-13T06:59:34.304Z"},"hostname":"DESKTOP-NNFRBAL","synced":false,"syncAttempts":0,"lastSyncAttempt":null,"createdAt":"2026-03-06T00:03:06.503Z","_id":"9cuMDNH5IJ1Prdur"}
{"timestamp":"2026-03-06T00:10:37.306Z","CameraFeedbackMessage":{"targetSystem":0,"camIdx":0,"imgIdx":135,"lat":599353176,"lng":95645948,"altMsl":476.4499816894531,"altRel":107.13999938964844,"roll":-2.109999895095825,"pitch":-3.629999876022339,"yaw":287.8699951171875,"focLen":0,"flags":0,"completedCaptures":0,"msg_name":"CAMERA_FEEDBACK","CAMERA_FEEDBACK":{"targetSystem":0,"camIdx":0,"imgIdx":135,"lat":599353176,"lng":95645948,"altMsl":476.4499816894531,"altRel":107.13999938964844,"roll":-2.109999895095825,"pitch":-3.629999876022339,"yaw":287.8699951171875,"focLen":0,"flags":0,"completedCaptures":0}},"GimbalOrientation":{"timeBootMs":2328984,"roll":-0.024045327678322792,"pitch":-40.97468185424805,"yaw":-13.3099365234375,"yawAbsolute":-86.21543884277344,"msg_name":"MOUNT_ORIENTATION","MOUNT_ORIENTATION":{"timeBootMs":2328984,"roll":-0.024045327678322792,"pitch":-40.97468185424805,"yaw":-13.3099365234375,"yawAbsolute":-86.21543884277344}},"SystemTime":{"seq":587,"total":3158,"missionState":3,"missionMode":1,"missionId":0,"fenceId":0,"rallyPointsId":0,"msg_name":"MISSION_CURRENT","MISSION_CURRENT":{"seq":587,"total":3158,"missionState":3,"missionMode":1,"missionId":0,"fenceId":0,"rallyPointsId":0}},"Custom":{"dateTimeCaptureISO":"2025-06-13T07:05:28.304Z"},"hostname":"DESKTOP-NNFRBAL","synced":false,"syncAttempts":0,"lastSyncAttempt":null,"createdAt":"2026-03-06T00:10:37.306Z","_id":"AG0nOg1Xs1iXsC2G"}
{"timestamp":"2026-03-06T00:16:20.311Z","CameraFeedbackMessage":{"targetSystem":0,"camIdx":0,"imgIdx":153,"lat":599449057,"lng":95533681,"altMsl":485.5,"altRel":116.18999481201172,"roll":1.100000023841858,"pitch":-4.839999675750732,"yaw":169.70999145507812,"focLen":0,"flags":0,"completedCaptures":0,"msg_name":"CAMERA_FEEDBACK","CAMERA_FEEDBACK":{"targetSystem":0,"camIdx":0,"imgIdx":153,"lat":599449057,"lng":95533681,"altMsl":485.5,"altRel":116.18999481201172,"roll":1.100000023841858,"pitch":-4.839999675750732,"yaw":169.70999145507812,"focLen":0,"flags":0,"completedCaptures":0}},"GimbalOrientation":{"timeBootMs":321467,"roll":-0.014719964936375618,"pitch":-41.464515686035156,"yaw":-13.5736083984375,"yawAbsolute":155.56619262695312,"msg_name":"MOUNT_ORIENTATION","MOUNT_ORIENTATION":{"timeBootMs":321467,"roll":-0.014719964936375618,"pitch":-41.464515686035156,"yaw":-13.5736083984375,"yawAbsolute":155.56619262695312}},"SystemTime":{"seq":659,"total":3158,"missionState":3,"missionMode":1,"missionId":0,"fenceId":0,"rallyPointsId":0,"msg_name":"MISSION_CURRENT","MISSION_CURRENT":{"seq":659,"total":3158,"missionState":3,"missionMode":1,"missionId":0,"fenceId":0,"rallyPointsId":0}},"Custom":{"dateTimeCaptureISO":"2025-06-13T07:09:57.804Z"},"hostname":"DESKTOP-NNFRBAL","synced":false,"syncAttempts":0,"lastSyncAttempt":null,"createdAt":"2026-03-06T00:16:20.312Z","_id":"ATBL9J7PEPhWFi2f"}
{"timestamp":"2026-03-06T00:22:12.459Z","CameraFeedbackMessage":{"targetSystem":0,"camIdx":0,"imgIdx":187,"lat":599360404,"lng":95545337,"altMsl":472.05999755859375,"altRel":102.75,"roll":-0.7299999594688416,"pitch":-7.049999713897705,"yaw":242.4199981689453,"focLen":0,"flags":0,"completedCaptures":0,"msg_name":"CAMERA_FEEDBACK","CAMERA_FEEDBACK":{"targetSystem":0,"camIdx":0,"imgIdx":187,"lat":599360404,"lng":95545337,"altMsl":472.05999755859375,"altRel":102.75,"roll":-0.7299999594688416,"pitch":-7.049999713897705,"yaw":242.4199981689453,"focLen":0,"flags":0,"completedCaptures":0}},"GimbalOrientation":{"timeBootMs":3253742,"roll":0.000412402005167678,"pitch":-77.15447998046875,"yaw":-86.8743896484375,"yawAbsolute":155.955322265625,"msg_name":"MOUNT_ORIENTATION","MOUNT_ORIENTATION":{"timeBootMs":3253742,"roll":0.000412402005167678,"pitch":-77.15447998046875,"yaw":-86.8743896484375,"yawAbsolute":155.955322265625}},"SystemTime":{"seq":803,"total":3158,"missionState":3,"missionMode":1,"missionId":0,"fenceId":0,"rallyPointsId":0,"msg_name":"MISSION_CURRENT","MISSION_CURRENT":{"seq":803,"total":3158,"missionState":3,"missionMode":1,"missionId":0,"fenceId":0,"rallyPointsId":0}},"Custom":{"dateTimeCaptureISO":"2025-06-13T07:14:30.807Z"},"hostname":"DESKTOP-NNFRBAL","synced":false,"syncAttempts":0,"lastSyncAttempt":null,"createdAt":"2026-03-06T00:22:12.459Z","_id":"Adi5hOBTe2muoZlL"}
{"timestamp":"2026-03-06T00:04:57.823Z","CameraFeedbackMessage":{"targetSystem":0,"camIdx":0,"imgIdx":103,"lat":599305212,"lng":95773417,"altMsl":439.3499755859375,"altRel":70.04000091552734,"roll":-1.7400000095367432,"pitch":1.3700000047683716,"yaw":331.3599853515625,"focLen":0,"flags":0,"completedCaptures":0,"msg_name":"CAMERA_FEEDBACK","CAMERA_FEEDBACK":{"targetSystem":0,"camIdx":0,"imgIdx":103,"lat":599305212,"lng":95773417,"altMsl":439.3499755859375,"altRel":70.04000091552734,"roll":-1.7400000095367432,"pitch":1.3700000047683716,"yaw":331.3599853515625,"focLen":0,"flags":0,"completedCaptures":0}},"GimbalOrientation":{"timeBootMs":313076,"roll":0.0008752691792324185,"pitch":-74.81005859375,"yaw":-93.8177490234375,"yawAbsolute":-121.93536376953125,"msg_name":"MOUNT_ORIENTATION","MOUNT_ORIENTATION":{"timeBootMs":313076,"roll":0.0008752691792324185,"pitch":-74.81005859375,"yaw":-93.8177490234375,"yawAbsolute":-121.93536376953125}},"SystemTime":{"seq":443,"total":3158,"missionState":3,"missionMode":1,"missionId":0,"fenceId":0,"rallyPointsId":0,"msg_name":"MISSION_CURRENT","MISSION_CURRENT":{"seq":443,"total":3158,"missionState":3,"missionMode":1,"missionId":0,"fenceId":0,"rallyPointsId":0}},"Custom":{"dateTimeCaptureISO":"2025-06-13T07:01:00.804Z"},"hostname":"DESKTOP-NNFRBAL","synced":false,"syncAttempts":0,"lastSyncAttempt":null,"createdAt":"2026-03-06T00:04:57.823Z","_id":"DxSM4joJ1gzFKsSr"}
{"timestamp":"2026-03-06T00:18:24.959Z","CameraFeedbackMessage":{"targetSystem":0,"camIdx":0,"imgIdx":166,"lat":599407799,"lng":95548872,"altMsl":479.66998291015625,"altRel":110.36000061035156,"roll":1.7699999809265137,"pitch":-5.420000076293945,"yaw":169.5399932861328,"focLen":0,"flags":0,"completedCaptures":0,"msg_name":"CAMERA_FEEDBACK","CAMERA_FEEDBACK":{"targetSystem":0,"camIdx":0,"imgIdx":166,"lat":599407799,"lng":95548872,"altMsl":479.66998291015625,"altRel":110.36000061035156,"roll":1.7699999809265137,"pitch":-5.420000076293945,"yaw":169.5399932861328,"focLen":0,"flags":0,"completedCaptures":0}},"GimbalOrientation":{"timeBootMs":3764783,"roll":-0.023264935240149498,"pitch":-75.86152648925781,"yaw":-83.6224365234375,"yawAbsolute":86.25701904296875,"msg_name":"MOUNT_ORIENTATION","MOUNT_ORIENTATION":{"timeBootMs":3764783,"roll":-0.023264935240149498,"pitch":-75.86152648925781,"yaw":-83.6224365234375,"yawAbsolute":86.25701904296875}},"SystemTime":{"seq":710,"total":3158,"missionState":3,"missionMode":1,"missionId":0,"fenceId":0,"rallyPointsId":0,"msg_name":"MISSION_CURRENT","MISSION_CURRENT":{"seq":710,"total":3158,"missionState":3,"missionMode":1,"missionId":0,"fenceId":0,"rallyPointsId":0}},"Custom":{"dateTimeCaptureISO":"2025-06-13T07:11:34.804Z"},"hostname":"DESKTOP-NNFRBAL","synced":false,"syncAttempts":0,"lastSyncAttempt":null,"createdAt":"2026-03-06T00:18:24.959Z","_id":"EKFHVlJa8isahiZj"}
{"timestamp":"2026-03-06T00:06:48.459Z","CameraFeedbackMessage":{"targetSystem":0,"camIdx":0,"imgIdx":115,"lat":599333989,"lng":95738225,"altMsl":454.6099853515625,"altRel":85.29999542236328,"roll":-0.75,"pitch":-2.0199999809265137,"yaw":328.7099914550781,"focLen":0,"flags":0,"completedCaptures":0,"msg_name":"CAMERA_FEEDBACK","CAMERA_FEEDBACK":{"targetSystem":0,"camIdx":0,"imgIdx":115,"lat":599333989,"lng":95738225,"altMsl":454.6099853515625,"altRel":85.29999542236328,"roll":-0.75,"pitch":-2.0199999809265137,"yaw":328.7099914550781,"focLen":0,"flags":0,"completedCaptures":0}},"GimbalOrientation":{"timeBootMs":1975844,"roll":-0.0028489117976278067,"pitch":-76.67388916015625,"yaw":-84.8529052734375,"yawAbsolute":-116.02625274658203,"msg_name":"MOUNT_ORIENTATION","MOUNT_ORIENTATION":{"timeBootMs":1975844,"roll":-0.0028489117976278067,"pitch":-76.67388916015625,"yaw":-84.8529052734375,"yawAbsolute":-116.02625274658203}},"SystemTime":{"seq":497,"total":3158,"missionState":3,"missionMode":1,"missionId":0,"fenceId":0,"rallyPointsId":0,"msg_name":"MISSION_CURRENT","MISSION_CURRENT":{"seq":497,"total":3158,"missionState":3,"missionMode":1,"missionId":0,"fenceId":0,"rallyPointsId":0}},"Custom":{"dateTimeCaptureISO":"2025-06-13T07:02:27.306Z"},"hostname":"DESKTOP-NNFRBAL","synced":false,"syncAttempts":0,"lastSyncAttempt":null,"createdAt":"2026-03-06T00:06:48.459Z","_id":"EO5xdrSWlLXTNhEt"}
{"timestamp":"2026-03-06T00:01:45.795Z","CameraFeedbackMessage":{"targetSystem":0,"camIdx":0,"imgIdx":81,"lat":599258340,"lng":95798948,"altMsl":412.9100036621094,"altRel":43.599998474121094,"roll":1.2400000095367432,"pitch":-3.069999933242798,"yaw":11.84000015258789,"focLen":0,"flags":0,"completedCaptures":0,"msg_name":"CAMERA_FEEDBACK","CAMERA_FEEDBACK":{"targetSystem":0,"camIdx":0,"imgIdx":81,"lat":599258340,"lng":95798948,"altMsl":412.9100036621094,"altRel":43.599998474121094,"roll":1.2400000095367432,"pitch":-3.069999933242798,"yaw":11.84000015258789,"focLen":0,"flags":0,"completedCaptures":0}},"GimbalOrientation":{"timeBootMs":1056380,"roll":-0.015148770995438099,"pitch":-43.87973403930664,"yaw":-13.3978271484375,"yawAbsolute":-2.57201886177063,"msg_name":"MOUNT_ORIENTATION","MOUNT_ORIENTATION":{"timeBootMs":1056380,"roll":-0.015148770995438099,"pitch":-43.87973403930664,"yaw":-13.3978271484375,"yawAbsolute":-2.57201886177063}},"SystemTime":{"seq":328,"total":3158,"missionState":3,"missionMode":1,"missionId":0,"fenceId":0,"rallyPointsId":0,"msg_name":"MISSION_CURRENT","MISSION_CURRENT":{"seq":328,"total":3158,"missionState":3,"missionMode":1,"missionId":0,"fenceId":0,"rallyPointsId":0}},"Custom":{"dateTimeCaptureISO":"2025-06-13T06:58:31.804Z"},"hostname":"DESKTOP-NNFRBAL","synced":false,"syncAttempts":0,"lastSyncAttempt":null,"createdAt":"2026-03-06T00:01:45.795Z","_id":"EOa883VtNE7Wi2Ip"}
{"timestamp":"2026-03-06T00:15:40.747Z","CameraFeedbackMessage":{"targetSystem":0,"camIdx":0,"imgIdx":149,"lat":599463695,"lng":95528175,"altMsl":487.8499755859375,"altRel":118.54000091552734,"roll":2.0899999141693115,"pitch":-3.669999837875366,"yaw":168.6699981689453,"focLen":0,"flags":0,"completedCaptures":0,"msg_name":"CAMERA_FEEDBACK","CAMERA_FEEDBACK":{"targetSystem":0,"camIdx":0,"imgIdx":149,"lat":599463695,"lng":95528175,"altMsl":487.8499755859375,"altRel":118.54000091552734,"roll":2.0899999141693115,"pitch":-3.669999837875366,"yaw":168.6699981689453,"focLen":0,"flags":0,"completedCaptures":0}},"GimbalOrientation":{"timeBootMs":3740394,"roll":0.0029470890294760466,"pitch":-42.83697509765625,"yaw":-166.6790771484375,"yawAbsolute":3.249725341796875,"msg_name":"MOUNT_ORIENTATION","MOUNT_ORIENTATION":{"timeBootMs":3740394,"roll":0.0029470890294760466,"pitch":-42.83697509765625,"yaw":-166.6790771484375,"yawAbsolute":3.249725341796875}},"SystemTime":{"seq":641,"total":3158,"missionState":3,"missionMode":1,"missionId":0,"fenceId":0,"rallyPointsId":0,"msg_name":"MISSION_CURRENT","MISSION_CURRENT":{"seq":641,"total":3158,"missionState":3,"missionMode":1,"missionId":0,"fenceId":0,"rallyPointsId":0}},"Custom":{"dateTimeCaptureISO":"2025-06-13T07:09:26.807Z"},"hostname":"DESKTOP-NNFRBAL","synced":false,"syncAttempts":0,"lastSyncAttempt":null,"createdAt":"2026-03-06T00:15:40.747Z","_id":"EUfs7dPJSNYSB3gN"}
{"timestamp":"2026-03-06T00:09:56.220Z","CameraFeedbackMessage":{"targetSystem":0,"camIdx":0,"imgIdx":131,"lat":599348057,"lng":95677954,"altMsl":477.42999267578125,"altRel":108.1199951171875,"roll":-3.009999990463257,"pitch":-2.129999876022339,"yaw":287.9700012207031,"focLen":0,"flags":0,"completedCaptures":0,"msg_name":"CAMERA_FEEDBACK","CAMERA_FEEDBACK":{"targetSystem":0,"camIdx":0,"imgIdx":131,"lat":599348057,"lng":95677954,"altMsl":477.42999267578125,"altRel":108.1199951171875,"roll":-3.009999990463257,"pitch":-2.129999876022339,"yaw":287.9700012207031,"focLen":0,"flags":0,"completedCaptures":0}},"GimbalOrientation":{"timeBootMs":1130457,"roll":0.015717240050435066,"pitch":-44.10303497314453,"yaw":-166.9427490234375,"yawAbsolute":122.2022705078125,"msg_name":"MOUNT_ORIENTATION","MOUNT_ORIENTATION":{"timeBootMs":1130457,"roll":0.015717240050435066,"pitch":-44.10303497314453,"yaw":-166.9427490234375,"yawAbsolute":122.2022705078125}},"SystemTime":{"seq":571,"total":3158,"missionState":3,"missionMode":1,"missionId":0,"fenceId":0,"rallyPointsId":0,"msg_name":"MISSION_CURRENT","MISSION_CURRENT":{"seq":571,"total":3158,"missionState":3,"missionMode":1,"missionId":0,"fenceId":0,"rallyPointsId":0}},"Custom":{"dateTimeCaptureISO":"2025-06-13T07:04:55.804Z"},"hostname":"DESKTOP-NNFRBAL","synced":false,"syncAttempts":0,"lastSyncAttempt":null,"createdAt":"2026-03-06T00:09:56.220Z","_id":"F19HuDp1w07PPaVT"}
{"timestamp":"2026-03-06T00:15:48.623Z","CameraFeedbackMessage":{"targetSystem":0,"camIdx":0,"imgIdx":150,"lat":599461256,"lng":95529101,"altMsl":486.1499938964844,"altRel":116.83999633789062,"roll":1.2300000190734863,"pitch":-6.649999618530273,"yaw":169.22000122070312,"focLen":0,"flags":0,"completedCaptures":0,"msg_name":"CAMERA_FEEDBACK","CAMERA_FEEDBACK":{"targetSystem":0,"camIdx":0,"imgIdx":150,"lat":599461256,"lng":95529101,"altMsl":486.1499938964844,"altRel":116.83999633789062,"roll":1.2300000190734863,"pitch":-6.649999618530273,"yaw":169.22000122070312,"focLen":0,"flags":0,"completedCaptures":0}},"GimbalOrientation":{"timeBootMs":479568,"roll":-0.014578035101294518,"pitch":-48.24188995361328,"yaw":-13.2220458984375,"yawAbsolute":155.13999938964844,"msg_name":"MOUNT_ORIENTATION","MOUNT_ORIENTATION":{"timeBootMs":479568,"roll":-0.014578035101294518,"pitch":-48.24188995361328,"yaw":-13.2220458984375,"yawAbsolute":155.13999938964844}},"SystemTime":{"seq":647,"total":3158,"missionState":3,"missionMode":1,"missionId":0,"fenceId":0,"rallyPointsId":0,"msg_name":"MISSION_CURRENT","MISSION_CURRENT":{"seq":647,"total":3158,"missionState":3,"missionMode":1,"missionId":0,"fenceId":0,"rallyPointsId":0}},"Custom":{"dateTimeCaptureISO":"2025-06-13T07:09:32.807Z"},"hostname":"DESKTOP-NNFRBAL","synced":false,"syncAttempts":0,"lastSyncAttempt":null,"createdAt":"2026-03-06T00:15:48.623Z","_id":"F5nEbZqIjDrLq1zh"}
{"timestamp":"2026-03-06T00:16:46.105Z","CameraFeedbackMessage":{"targetSystem":0,"camIdx":0,"imgIdx":156,"lat":599440888,"lng":95536715,"altMsl":491.1499938964844,"altRel":121.83999633789062,"roll":1.7699999809265137,"pitch":-3.6599998474121094,"yaw":169.1999969482422,"focLen":0,"flags":0,"completedCaptures":0,"msg_name":"CAMERA_FEEDBACK","CAMERA_FEEDBACK":{"targetSystem":0,"camIdx":0,"imgIdx":156,"lat":599440888,"lng":95536715,"altMsl":491.1499938964844,"altRel":121.83999633789062,"roll":1.7699999809265137,"pitch":-3.6599998474121094,"yaw":169.1999969482422,"focLen":0,"flags":0,"completedCaptures":0}},"GimbalOrientation":{"timeBootMs":3712608,"roll":0.00545924436300993,"pitch":-48.42153549194336,"yaw":-12.6947021484375,"yawAbsolute":155.5515899658203,"msg_name":"MOUNT_ORIENTATION","MOUNT_ORIENTATION":{"timeBootMs":3712608,"roll":0.00545924436300993,"pitch":-48.42153549194336,"yaw":-12.6947021484375,"yawAbsolute":155.5515899658203}},"SystemTime":{"seq":671,"total":3158,"missionState":3,"missionMode":1,"missionId":0,"fenceId":0,"rallyPointsId":0,"msg_name":"MISSION_CURRENT","MISSION_CURRENT":{"seq":671,"total":3158,"missionState":3,"missionMode":1,"missionId":0,"fenceId":0,"rallyPointsId":0}},"Custom":{"dateTimeCaptureISO":"2025-06-13T07:10:17.804Z"},"hostname":"DESKTOP-NNFRBAL","synced":false,"syncAttempts":0,"lastSyncAttempt":null,"createdAt":"2026-03-06T00:16:46.106Z","_id":"FjKAWpWqMULhB9U3"}
{"timestamp":"2026-03-06T00:02:39.892Z","CameraFeedbackMessage":{"targetSystem":0,"camIdx":0,"imgIdx":88,"lat":599272239,"lng":95804264,"altMsl":414.5199890136719,"altRel":45.209999084472656,"roll":-3.2799999713897705,"pitch":-0.029999999329447746,"yaw":353.9100036621094,"focLen":0,"flags":0,"completedCaptures":0,"msg_name":"CAMERA_FEEDBACK","CAMERA_FEEDBACK":{"targetSystem":0,"camIdx":0,"imgIdx":88,"lat":599272239,"lng":95804264,"altMsl":414.5199890136719,"altRel":45.209999084472656,"roll":-3.2799999713897705,"pitch":-0.029999999329447746,"yaw":353.9100036621094,"focLen":0,"flags":0,"completedCaptures":0}},"GimbalOrientation":{"timeBootMs":3814999,"roll":0.017235251143574715,"pitch":-77.09786987304688,"yaw":-91.0052490234375,"yawAbsolute":-97.22449493408203,"msg_name":"MOUNT_ORIENTATION","MOUNT_ORIENTATION":{"timeBootMs":3814999,"roll":0.017235251143574715,"pitch":-77.09786987304688,"yaw":-91.0052490234375,"yawAbsolute":-97.22449493408203}},"SystemTime":{"seq":367,"total":3158,"missionState":3,"missionMode":1,"missionId":0,"fenceId":0,"rallyPointsId":0,"msg_name":"MISSION_CURRENT","MISSION_CURRENT":{"seq":367,"total":3158,"missionState":3,"missionMode":1,"missionId":0,"fenceId":0,"rallyPointsId":0}},"Custom":{"dateTimeCaptureISO":"2025-06-13T06:59:13.807Z"},"hostname":"DESKTOP-NNFRBAL","synced":false,"syncAttempts":0,"lastSyncAttempt":null,"createdAt":"2026-03-06T00:02:39.892Z","_id":"G5tHjJMV8URmXhQL"}
{"timestamp":"2026-03-06T00:08:56.456Z","CameraFeedbackMessage":{"targetSystem":0,"camIdx":0,"imgIdx":125,"lat":599340782,"lng":95723827,"altMsl":470.3299865722656,"altRel":101.0199966430664,"roll":-3.0299999713897705,"pitch":-4.819999694824219,"yaw":287.6099853515625,"focLen":0,"flags":0,"completedCaptures":0,"msg_name":"CAMERA_FEEDBACK","CAMERA_FEEDBACK":{"targetSystem":0,"camIdx":0,"imgIdx":125,"lat":599340782,"lng":95723827,"altMsl":470.3299865722656,"altRel":101.0199966430664,"roll":-3.0299999713897705,"pitch":-4.819999694824219,"yaw":287.6099853515625,"focLen":0,"flags":0,"completedCaptures":0}},"GimbalOrientation":{"timeBootMs":1785285,"roll":-0.007210963871330023,"pitch":-49.58161163330078,"yaw":-167.1185302734375,"yawAbsolute":121.66304016113281,"msg_name":"MOUNT_ORIENTATION","MOUNT_ORIENTATION":{"timeBootMs":1785285,"roll":-0.007210963871330023,"pitch":-49.58161163330078,"yaw":-167.1185302734375,"yawAbsolute":121.66304016113281}},"SystemTime":{"seq":549,"total":3158,"missionState":3,"missionMode":1,"missionId":0,"fenceId":0,"rallyPointsId":0,"msg_name":"MISSION_CURRENT","MISSION_CURRENT":{"seq":549,"total":3158,"missionState":3,"missionMode":1,"missionId":0,"fenceId":0,"rallyPointsId":0}},"Custom":{"dateTimeCaptureISO":"2025-06-13T07:04:08.304Z"},"hostname":"DESKTOP-NNFRBAL","synced":false,"syncAttempts":0,"lastSyncAttempt":null,"createdAt":"2026-03-06T00:08:56.456Z","_id":"GKYwouUjn8WBg3HO"}
{"timestamp":"2026-03-06T00:04:43.159Z","CameraFeedbackMessage":{"targetSystem":0,"camIdx":0,"imgIdx":102,"lat":599301931,"lng":95776535,"altMsl":434.0799865722656,"altRel":64.7699966430664,"roll":-0.3199999928474426,"pitch":1.409999966621399,"yaw":335.3299865722656,"focLen":0,"flags":0,"completedCaptures":0,"msg_name":"CAMERA_FEEDBACK","CAMERA_FEEDBACK":{"targetSystem":0,"camIdx":0,"imgIdx":102,"lat":599301931,"lng":95776535,"altMsl":434.0799865722656,"altRel":64.7699966430664,"roll":-0.3199999928474426,"pitch":1.409999966621399,"yaw":335.3299865722656,"focLen":0,"flags":0,"completedCaptures":0}},"GimbalOrientation":{"timeBootMs":2675077,"roll":0.0029996943194419146,"pitch":-37.24143600463867,"yaw":-13.6614990234375,"yawAbsolute":-39.45344924926758,"msg_name":"MOUNT_ORIENTATION","MOUNT_ORIENTATION":{"timeBootMs":2675077,"roll":0.0029996943194419146,"pitch":-37.24143600463867,"yaw":-13.6614990234375,"yawAbsolute":-39.45344924926758}},"SystemTime":{"seq":439,"total":3158,"missionState":3,"missionMode":1,"missionId":0,"fenceId":0,"rallyPointsId":0,"msg_name":"MISSION_CURRENT","MISSION_CURRENT":{"seq":439,"total":3158,"missionState":3,"missionMode":1,"missionId":0,"fenceId":0,"rallyPointsId":0}},"Custom":{"dateTimeCaptureISO":"2025-06-13T07:00:49.307Z"},"hostname":"DESKTOP-NNFRBAL","synced":false,"syncAttempts":0,"lastSyncAttempt":null,"createdAt":"2026-03-06T00:04:43.159Z","_id":"GLeMxhNXcy1ncqw7"}
{"timestamp":"2026-03-06T00:22:25.530Z","CameraFeedbackMessage":{"targetSystem":0,"camIdx":0,"imgIdx":188,"lat":599358741,"lng":95538970,"altMsl":473.5999755859375,"altRel":104.29000091552734,"roll":-0.47999998927116394,"pitch":-0.6800000071525574,"yaw":242.51998901367188,"focLen":0,"flags":0,"completedCaptures":0,"msg_name":"CAMERA_FEEDBACK","CAMERA_FEEDBACK":{"targetSystem":0,"camIdx":0,"imgIdx":188,"lat":599358741,"lng":95538970,"altMsl":473.5999755859375,"altRel":104.29000091552734,"roll":-0.47999998927116394,"pitch":-0.6800000071525574,"yaw":242.51998901367188,"focLen":0,"flags":0,"completedCaptures":0}},"GimbalOrientation":{"timeBootMs":637392,"roll":-0.00046023563481867313,"pitch":-47.69388961791992,"yaw":-167.2943115234375,"yawAbsolute":76.09368896484375,"msg_name":"MOUNT_ORIENTATION","MOUNT_ORIENTATION":{"timeBootMs":637392,"roll":-0.00046023563481867313,"pitch":-47.69388961791992,"yaw":-167.2943115234375,"yawAbsolute":76.09368896484375}},"SystemTime":{"seq":806,"total":3158,"missionState":3,"missionMode":1,"missionId":0,"fenceId":0,"rallyPointsId":0,"msg_name":"MISSION_CURRENT","MISSION_CURRENT":{"seq":806,"total":3158,"missionState":3,"missionMode":1,"missionId":0,"fenceId":0,"rallyPointsId":0}},"Custom":{"dateTimeCaptureISO":"2025-06-13T07:14:40.807Z"},"hostname":"DESKTOP-NNFRBAL","synced":false,"syncAttempts":0,"lastSyncAttempt":null,"createdAt":"2026-03-06T00:22:25.530Z","_id":"GS1KVnRHP8xpEVG1"}
{"timestamp":"2026-03-06T00:12:23.044Z","CameraFeedbackMessage":{"targetSystem":0,"camIdx":0,"imgIdx":146,"lat":599365133,"lng":95571318,"altMsl":471,"altRel":101.68999481201172,"roll":0.2800000011920929,"pitch":-0.6399999856948853,"yaw":287.41998291015625,"focLen":0,"flags":0,"completedCaptures":0,"msg_name":"CAMERA_FEEDBACK","CAMERA_FEEDBACK":{"targetSystem":0,"camIdx":0,"imgIdx":146,"lat":599365133,"lng":95571318,"altMsl":471,"altRel":101.68999481201172,"roll":0.2800000011920929,"pitch":-0.6399999856948853,"yaw":287.41998291015625,"focLen":0,"flags":0,"completedCaptures":0}},"GimbalOrientation":{"timeBootMs":3500236,"roll":-0.0020144390873610973,"pitch":-47.10994338989258,"yaw":-166.6790771484375,"yawAbsolute":121.69490051269531,"msg_name":"MOUNT_ORIENTATION","MOUNT_ORIENTATION":{"timeBootMs":3500236,"roll":-0.0020144390873610973,"pitch":-47.10994338989258,"yaw":-166.6790771484375,"yawAbsolute":121.69490051269531}},"SystemTime":{"seq":628,"total":3158,"missionState":3,"missionMode":1,"missionId":0,"fenceId":0,"rallyPointsId":0,"msg_name":"MISSION_CURRENT","MISSION_CURRENT":{"seq":628,"total":3158,"missionState":3,"missionMode":1,"missionId":0,"fenceId":0,"rallyPointsId":0}},"Custom":{"dateTimeCaptureISO":"2025-06-13T07:06:51.806Z"},"hostname":"DESKTOP-NNFRBAL","synced":false,"syncAttempts":0,"lastSyncAttempt":null,"createdAt":"2026-03-06T00:12:23.044Z","_id":"GjBGFlydm9tmtxDK"}
{"timestamp":"2026-03-06T00:07:45.830Z","CameraFeedbackMessage":{"targetSystem":0,"camIdx":0,"imgIdx":117,"lat":599334451,"lng":95763244,"altMsl":441.0099792480469,"altRel":71.69999694824219,"roll":-2.7799999713897705,"pitch":-0.8700000047683716,"yaw":299.0199890136719,"focLen":0,"flags":0,"completedCaptures":0,"msg_name":"CAMERA_FEEDBACK","CAMERA_FEEDBACK":{"targetSystem":0,"camIdx":0,"imgIdx":117,"lat":599334451,"lng":95763244,"altMsl":441.0099792480469,"altRel":71.69999694824219,"roll":-2.7799999713897705,"pitch":-0.8700000047683716,"yaw":299.0199890136719,"focLen":0,"flags":0,"completedCaptures":0}},"GimbalOrientation":{"timeBootMs":998860,"roll":-0.017516760155558586,"pitch":-41.04763412475586,"yaw":-26.2298583984375,"yawAbsolute":-86.6502914428711,"msg_name":"MOUNT_ORIENTATION","MOUNT_ORIENTATION":{"timeBootMs":998860,"roll":-0.017516760155558586,"pitch":-41.04763412475586,"yaw":-26.2298583984375,"yawAbsolute":-86.6502914428711}},"SystemTime":{"seq":507,"total":3158,"missionState":3,"missionMode":1,"missionId":0,"fenceId":0,"rallyPointsId":0,"msg_name":"MISSION_CURRENT","MISSION_CURRENT":{"seq":507,"total":3158,"missionState":3,"missionMode":1,"missionId":0,"fenceId":0,"rallyPointsId":0}},"Custom":{"dateTimeCaptureISO":"2025-06-13T07:03:12.804Z"},"hostname":"DESKTOP-NNFRBAL","synced":false,"syncAttempts":0,"lastSyncAttempt":null,"createdAt":"2026-03-06T00:07:45.830Z","_id":"HZvOAJbfFod0fkDr"}
{"timestamp":"2026-03-06T00:23:10.201Z","CameraFeedbackMessage":{"targetSystem":0,"camIdx":0,"imgIdx":193,"lat":599353620,"lng":95519235,"altMsl":475.8599853515625,"altRel":106.54999542236328,"roll":-1.8199999332427979,"pitch":-5.609999656677246,"yaw":242.84999084472656,"focLen":0,"flags":0,"completedCaptures":0,"msg_name":"CAMERA_FEEDBACK","CAMERA_FEEDBACK":{"targetSystem":0,"camIdx":0,"imgIdx":193,"lat":599353620,"lng":95519235,"altMsl":475.8599853515625,"altRel":106.54999542236328,"roll":-1.8199999332427979,"pitch":-5.609999656677246,"yaw":242.84999084472656,"focLen":0,"flags":0,"completedCaptures":0}},"GimbalOrientation":{"timeBootMs":2141300,"roll":0.036704037338495255,"pitch":-76.14901733398438,"yaw":-85.6439208984375,"yawAbsolute":157.30224609375,"msg_name":"MOUNT_ORIENTATION","MOUNT_ORIENTATION":{"timeBootMs":2141300,"roll":0.036704037338495255,"pitch":-76.14901733398438,"yaw":-85.6439208984375,"yawAbsolute":157.30224609375}},"SystemTime":{"seq":829,"total":3158,"missionState":3,"missionMode":1,"missionId":0,"fenceId":0,"rallyPointsId":0,"msg_name":"MISSION_CURRENT","MISSION_CURRENT":{"seq":829,"total":3158,"missionState":3,"missionMode":1,"missionId":0,"fenceId":0,"rallyPointsId":0}},"Custom":{"dateTimeCaptureISO":"2025-06-13T07:15:15.305Z"},"hostname":"DESKTOP-NNFRBAL","synced":false,"syncAttempts":0,"lastSyncAttempt":null,"createdAt":"2026-03-06T00:23:10.201Z","_id":"HgZgb99qk02pmd5Z"}
{"timestamp":"2026-03-06T00:10:46.441Z","CameraFeedbackMessage":{"targetSystem":0,"camIdx":0,"imgIdx":136,"lat":599354258,"lng":95639147,"altMsl":476.7200012207031,"altRel":107.40999603271484,"roll":-2.129999876022339,"pitch":-2.200000047683716,"yaw":287.8500061035156,"focLen":0,"flags":0,"completedCaptures":0,"msg_name":"CAMERA_FEEDBACK","CAMERA_FEEDBACK":{"targetSystem":0,"camIdx":0,"imgIdx":136,"lat":599354258,"lng":95639147,"altMsl":476.7200012207031,"altRel":107.40999603271484,"roll":-2.129999876022339,"pitch":-2.200000047683716,"yaw":287.8500061035156,"focLen":0,"flags":0,"completedCaptures":0}},"GimbalOrientation":{"timeBootMs":3532843,"roll":0.015514181926846504,"pitch":-74.70317840576172,"yaw":-86.0833740234375,"yawAbsolute":-158.11424255371094,"msg_name":"MOUNT_ORIENTATION","MOUNT_ORIENTATION":{"timeBootMs":3532843,"roll":0.015514181926846504,"pitch":-74.70317840576172,"yaw":-86.0833740234375,"yawAbsolute":-158.11424255371094}},"SystemTime":{"seq":590,"total":3158,"missionState":3,"missionMode":1,"missionId":0,"fenceId":0,"rallyPointsId":0,"msg_name":"MISSION_CURRENT","MISSION_CURRENT":{"seq":590,"total":3158,"missionState":3,"missionMode":1,"missionId":0,"fenceId":0,"rallyPointsId":0}},"Custom":{"dateTimeCaptureISO":"2025-06-13T07:05:35.307Z"},"hostname":"DESKTOP-NNFRBAL","synced":false,"syncAttempts":0,"lastSyncAttempt":null,"createdAt":"2026-03-06T00:10:46.441Z","_id":"I6FgrDNviEsGviCw"}
