{"timestamp":"2026-03-06T13:15:49.571Z","CameraFeedbackMessage":{"targetSystem":0,"camIdx":0,"imgIdx":4,"lat":611851051,"lng":89938816,"altMsl":658.1099853515625,"altRel":24.010000228881836,"roll":-2.0299999713897705,"pitch":-2.8399999141693115,"yaw":146.739990234375,"focLen":0,"flags":0,"completedCaptures":0,"msg_name":"CAMERA_FEEDBACK","CAMERA_FEEDBACK":{"targetSystem":0,"camIdx":0,"imgIdx":4,"lat":611851051,"lng":89938816,"altMsl":658.1099853515625,"altRel":24.010000228881836,"roll":-2.0299999713897705,"pitch":-2.8399999141693115,"yaw":146.739990234375,"focLen":0,"flags":0,"completedCaptures":0}},"GimbalOrientation":{"timeBootMs":3694547,"roll":-0.10778403282165527,"pitch":-48.70680236816406,"yaw":-27.037353515625,"yawAbsolute":118.8271484375,"msg_name":"MOUNT_ORIENTATION","MOUNT_ORIENTATION":{"timeBootMs":3694547,"roll":-0.10778403282165527,"pitch":-48.70680236816406,"yaw":-27.037353515625,"yawAbsolute":118.8271484375}},"SystemTime":{"seq":20,"total":926,"missionState":3,"missionMode":1,"missionId":0,"fenceId":0,"rallyPointsId":0,"msg_name":"MISSION_CURRENT","MISSION_CURRENT":{"seq":20,"total":926,"missionState":3,"missionMode":1,"missionId":0,"fenceId":0,"rallyPointsId":0}},"Custom":{"dateTimeCaptureISO":"2025-11-25T10:01:06.001Z"},"hostname":"UA01-SRV01","synced":false,"syncAttempts":5,"lastSyncAttempt":"2026-03-06T13:18:05.524Z","createdAt":"2026-03-06T13:15:49.571Z","_id":"0Cx5T1fFh0v7fehj"}
{"timestamp":"2026-03-06T00:30:30.371Z","CameraFeedbackMessage":{"targetSystem":0,"camIdx":0,"imgIdx":240,"lat":599286366,"lng":95311290,"altMsl":512.3699951171875,"altRel":143.05999755859375,"roll":0,"pitch":-0.4699999988079071,"yaw":223.5399932861328,"focLen":0,"flags":0,"completedCaptures":0,"msg_name":"CAMERA_FEEDBACK","CAMERA_FEEDBACK":{"targetSystem":0,"camIdx":0,"imgIdx":240,"lat":599286366,"lng":95311290,"altMsl":512.3699951171875,"altRel":143.05999755859375,"roll":0,"pitch":-0.4699999988079071,"yaw":223.5399932861328,"focLen":0,"flags":0,"completedCaptures":0}},"GimbalOrientation":{"timeBootMs":2683783,"roll":-0.10355304926633835,"pitch":-46.681480407714844,"yaw":-7.2454833984375,"yawAbsolute":-144.82058715820312,"msg_name":"MOUNT_ORIENTATION","MOUNT_ORIENTATION":{"timeBootMs":2683783,"roll":-0.10355304926633835,"pitch":-46.681480407714844,"yaw":-7.2454833984375,"yawAbsolute":-144.82058715820312}},"SystemTime":{"seq":1061,"total":3158,"missionState":3,"missionMode":1,"missionId":0,"fenceId":0,"rallyPointsId":0,"msg_name":"MISSION_CURRENT","MISSION_CURRENT":{"seq":1061,"total":3158,"missionState":3,"missionMode":1,"missionId":0,"fenceId":0,"rallyPointsId":0}},"Custom":{"dateTimeCaptureISO":"2025-06-13T07:20:50.804Z"},"hostname":"DESKTOP-NNFRBAL","synced":true,"syncAttempts":0,"lastSyncAttempt":null,"createdAt":"2026-03-06T00:30:30.371Z","_id":"0MmEVcBbsT1da2da","syncedAt":"2026-03-06T12:53:05.329Z"}
{"timestamp":"2026-03-06T13:27:40.342Z","CameraFeedbackMessage":{"targetSystem":0,"camIdx":0,"imgIdx":74,"lat":611672816,"lng":89941650,"altMsl":693.0399780273438,"altRel":58.939998626708984,"roll":-0.3199999928474426,"pitch":-3.1999998092651367,"yaw":164.95999145507812,"focLen":0,"flags":0,"completedCaptures":0,"msg_name":"CAMERA_FEEDBACK","CAMERA_FEEDBACK":{"targetSystem":0,"camIdx":0,"imgIdx":74,"lat":611672816,"lng":89941650,"altMsl":693.0399780273438,"altRel":58.939998626708984,"roll":-0.3199999928474426,"pitch":-3.1999998092651367,"yaw":164.95999145507812,"focLen":0,"flags":0,"completedCaptures":0}},"GimbalOrientation":{"timeBootMs":2698244,"roll":-0.028517361730337143,"pitch":-66.21124267578125,"yaw":-95.789794921875,"yawAbsolute":69.36367797851562,"msg_name":"MOUNT_ORIENTATION","MOUNT_ORIENTATION":{"timeBootMs":2698244,"roll":-0.028517361730337143,"pitch":-66.21124267578125,"yaw":-95.789794921875,"yawAbsolute":69.36367797851562}},"SystemTime":{"seq":367,"total":926,"missionState":3,"missionMode":1,"missionId":0,"fenceId":0,"rallyPointsId":0,"msg_name":"MISSION_CURRENT","MISSION_CURRENT":{"seq":367,"total":926,"missionState":3,"missionMode":1,"missionId":0,"fenceId":0,"rallyPointsId":0}},"Custom":{"dateTimeCaptureISO":"2025-11-25T10:10:48.501Z"},"hostname":"UA01-SRV01","synced":false,"syncAttempts":0,"lastSyncAttempt":null,"createdAt":"2026-03-06T13:27:40.342Z","_id":"0Po55nAHsTa3YPFb"}
{"timestamp":"2026-03-06T00:27:55.486Z","CameraFeedbackMessage":{"targetSystem":0,"camIdx":0,"imgIdx":224,"lat":599317190,"lng":95370285,"altMsl":530.7000122070312,"altRel":161.38999938964844,"roll":0.8999999761581421,"pitch":-3,"yaw":223.84999084472656,"focLen":0,"flags":0,"completedCaptures":0,"msg_name":"CAMERA_FEEDBACK","CAMERA_FEEDBACK":{"targetSystem":0,"camIdx":0,"imgIdx":224,"lat":599317190,"lng":95370285,"altMsl":530.7000122070312,"altRel":161.38999938964844,"roll":0.8999999761581421,"pitch":-3,"yaw":223.84999084472656,"focLen":0,"flags":0,"completedCaptures":0}},"GimbalOrientation":{"timeBootMs":941360,"roll":-0.030077729374170303,"pitch":-41.59061813354492,"yaw":-14.1009521484375,"yawAbsolute":-150.31829833984375,"msg_name":"MOUNT_ORIENTATION","MOUNT_ORIENTATION":{"timeBootMs":941360,"roll":-0.030077729374170303,"pitch":-41.59061813354492,"yaw":-14.1009521484375,"yawAbsolute":-150.31829833984375}},"SystemTime":{"seq":986,"total":3158,"missionState":3,"missionMode":1,"missionId":0,"fenceId":0,"rallyPointsId":0,"msg_name":"MISSION_CURRENT","MISSION_CURRENT":{"seq":986,"total":3158,"missionState":3,"missionMode":1,"missionId":0,"fenceId":0,"rallyPointsId":0}},"Custom":{"dateTimeCaptureISO":"2025-06-13T07:18:58.307Z"},"hostname":"DESKTOP-NNFRBAL","synced":true,"syncAttempts":0,"lastSyncAttempt":null,"createdAt":"2026-03-06T00:27:55.486Z","_id":"0UTclO719jxw2IPi","syncedAt":"2026-03-06T12:53:05.277Z"}
{"timestamp":"2026-03-06T00:03:41.203Z","CameraFeedbackMessage":{"targetSystem":0,"camIdx":0,"imgIdx":95,"lat":599284218,"lng":95793206,"altMsl":417.8399963378906,"altRel":48.529998779296875,"roll":-1.0799999237060547,"pitch":-0.7699999809265137,"yaw":334.6199951171875,"focLen":0,"flags":0,"completedCaptures":0,"msg_name":"CAMERA_FEEDBACK","CAMERA_FEEDBACK":{"targetSystem":0,"camIdx":0,"imgIdx":95,"lat":599284218,"lng":95793206,"altMsl":417.8399963378906,"altRel":48.529998779296875,"roll":-1.0799999237060547,"pitch":-0.7699999809265137,"yaw":334.6199951171875,"focLen":0,"flags":0,"completedCaptures":0}},"GimbalOrientation":{"timeBootMs":3211208,"roll":-0.008671049028635025,"pitch":-47.32369613647461,"yaw":-166.5032958984375,"yawAbsolute":168.84214782714844,"msg_name":"MOUNT_ORIENTATION","MOUNT_ORIENTATION":{"timeBootMs":3211208,"roll":-0.008671049028635025,"pitch":-47.32369613647461,"yaw":-166.5032958984375,"yawAbsolute":168.84214782714844}},"SystemTime":{"seq":407,"total":3158,"missionState":3,"missionMode":1,"missionId":0,"fenceId":0,"rallyPointsId":0,"msg_name":"MISSION_CURRENT","MISSION_CURRENT":{"seq":407,"total":3158,"missionState":3,"missionMode":1,"missionId":0,"fenceId":0,"rallyPointsId":0}},"Custom":{"dateTimeCaptureISO":"2025-06-13T07:00:01.304Z"},"hostname":"DESKTOP-NNFRBAL","synced":true,"syncAttempts":2,"lastSyncAttempt":"2026-03-06T12:51:05.216Z","createdAt":"2026-03-06T00:03:41.203Z","_id":"0byJp1bpUmL5Fizw","syncedAt":"2026-03-06T12:51:35.211Z"}
{"timestamp":"2026-03-06T13:47:49.681Z","CameraFeedbackMessage":{"targetSystem":0,"camIdx":0,"imgIdx":178,"lat":611590813,"lng":90321217,"altMsl":736.5199584960938,"altRel":102.41999816894531,"roll":-0.38999998569488525,"pitch":-0.32999998331069946,"yaw":100.43999481201172,"focLen":0,"flags":0,"completedCaptures":0,"msg_name":"CAMERA_FEEDBACK","CAMERA_FEEDBACK":{"targetSystem":0,"camIdx":0,"imgIdx":178,"lat":611590813,"lng":90321217,"altMsl":736.5199584960938,"altRel":102.41999816894531,"roll":-0.38999998569488525,"pitch":-0.32999998331069946,"yaw":100.43999481201172,"focLen":0,"flags":0,"completedCaptures":0}},"GimbalOrientation":{"timeBootMs":2431936,"roll":-0.1051812469959259,"pitch":-48.8494758605957,"yaw":-157.291259765625,"yawAbsolute":-55.7266845703125,"msg_name":"MOUNT_ORIENTATION","MOUNT_ORIENTATION":{"timeBootMs":2431936,"roll":-0.1051812469959259,"pitch":-48.8494758605957,"yaw":-157.291259765625,"yawAbsolute":-55.7266845703125}},"SystemTime":{"seq":895,"total":926,"missionState":3,"missionMode":1,"missionId":0,"fenceId":0,"rallyPointsId":0,"msg_name":"MISSION_CURRENT","MISSION_CURRENT":{"seq":895,"total":926,"missionState":3,"missionMode":1,"missionId":0,"fenceId":0,"rallyPointsId":0}},"Custom":{"dateTimeCaptureISO":"2025-11-25T10:27:23.499Z"},"hostname":"UA01-SRV01","synced":false,"syncAttempts":0,"lastSyncAttempt":null,"createdAt":"2026-03-06T13:47:49.681Z","_id":"0jbecEwUtnDLlJQ7"}
{"timestamp":"2026-03-06T13:17:22.336Z","CameraFeedbackMessage":{"targetSystem":0,"camIdx":0,"imgIdx":16,"lat":611830389,"lng":89955890,"altMsl":674.6699829101562,"altRel":40.56999969482422,"roll":-2.009999990463257,"pitch":-0.47999998927116394,"yaw":189.55999755859375,"focLen":0,"flags":0,"completedCaptures":0,"msg_name":"CAMERA_FEEDBACK","CAMERA_FEEDBACK":{"targetSystem":0,"camIdx":0,"imgIdx":16,"lat":611830389,"lng":89955890,"altMsl":674.6699829101562,"altRel":40.56999969482422,"roll":-2.009999990463257,"pitch":-0.47999998927116394,"yaw":189.55999755859375,"focLen":0,"flags":0,"completedCaptures":0}},"GimbalOrientation":{"timeBootMs":3498933,"roll":-0.021486399695277214,"pitch":-45.309974670410156,"yaw":-155.950927734375,"yawAbsolute":34.06280517578125,"msg_name":"MOUNT_ORIENTATION","MOUNT_ORIENTATION":{"timeBootMs":3498933,"roll":-0.021486399695277214,"pitch":-45.309974670410156,"yaw":-155.950927734375,"yawAbsolute":34.06280517578125}},"SystemTime":{"seq":86,"total":926,"missionState":3,"missionMode":1,"missionId":0,"fenceId":0,"rallyPointsId":0,"msg_name":"MISSION_CURRENT","MISSION_CURRENT":{"seq":86,"total":926,"missionState":3,"missionMode":1,"missionId":0,"fenceId":0,"rallyPointsId":0}},"Custom":{"dateTimeCaptureISO":"2025-11-25T10:02:21.501Z"},"hostname":"UA01-SRV01","synced":false,"syncAttempts":5,"lastSyncAttempt":"2026-03-06T13:19:35.562Z","createdAt":"2026-03-06T13:17:22.336Z","_id":"0sGrc2JcqRAywcQc"}
{"timestamp":"2026-03-06T00:28:36.114Z","CameraFeedbackMessage":{"targetSystem":0,"camIdx":0,"imgIdx":229,"lat":599310973,"lng":95358468,"altMsl":536.0499877929688,"altRel":166.739990234375,"roll":0.9199999570846558,"pitch":-3.009999990463257,"yaw":223.8300018310547,"focLen":0,"flags":0,"completedCaptures":0,"msg_name":"CAMERA_FEEDBACK","CAMERA_FEEDBACK":{"targetSystem":0,"camIdx":0,"imgIdx":229,"lat":599310973,"lng":95358468,"altMsl":536.0499877929688,"altRel":166.739990234375,"roll":0.9199999570846558,"pitch":-3.009999990463257,"yaw":223.8300018310547,"focLen":0,"flags":0,"completedCaptures":0}},"GimbalOrientation":{"timeBootMs":1902510,"roll":-0.04525891691446304,"pitch":-74.85945129394531,"yaw":-88.4564208984375,"yawAbsolute":135.1671142578125,"msg_name":"MOUNT_ORIENTATION","MOUNT_ORIENTATION":{"timeBootMs":1902510,"roll":-0.04525891691446304,"pitch":-74.85945129394531,"yaw":-88.4564208984375,"yawAbsolute":135.1671142578125}},"SystemTime":{"seq":1016,"total":3158,"missionState":3,"missionMode":1,"missionId":0,"fenceId":0,"rallyPointsId":0,"msg_name":"MISSION_CURRENT","MISSION_CURRENT":{"seq":1016,"total":3158,"missionState":3,"missionMode":1,"missionId":0,"fenceId":0,"rallyPointsId":0}},"Custom":{"dateTimeCaptureISO":"2025-06-13T07:19:29.305Z"},"hostname":"DESKTOP-NNFRBAL","synced":true,"syncAttempts":0,"lastSyncAttempt":null,"createdAt":"2026-03-06T00:28:36.114Z","_id":"151eHB08moCB0NG4","syncedAt":"2026-03-06T12:53:05.290Z"}
{"timestamp":"2026-03-06T13:30:05.210Z","CameraFeedbackMessage":{"targetSystem":0,"camIdx":0,"imgIdx":90,"lat":611648352,"lng":89989518,"altMsl":736.7899780273438,"altRel":102.68999481201172,"roll":0.29999998211860657,"pitch":-4.409999847412109,"yaw":143.38999938964844,"focLen":0,"flags":0,"completedCaptures":0,"msg_name":"CAMERA_FEEDBACK","CAMERA_FEEDBACK":{"targetSystem":0,"camIdx":0,"imgIdx":90,"lat":611648352,"lng":89989518,"altMsl":736.7899780273438,"altRel":102.68999481201172,"roll":0.29999998211860657,"pitch":-4.409999847412109,"yaw":143.38999938964844,"focLen":0,"flags":0,"completedCaptures":0}},"GimbalOrientation":{"timeBootMs":1061636,"roll":-0.1381734013557434,"pitch":-43.05070114135742,"yaw":-155.401611328125,"yawAbsolute":-11.257781982421875,"msg_name":"MOUNT_ORIENTATION","MOUNT_ORIENTATION":{"timeBootMs":1061636,"roll":-0.1381734013557434,"pitch":-43.05070114135742,"yaw":-155.401611328125,"yawAbsolute":-11.257781982421875}},"SystemTime":{"seq":447,"total":926,"missionState":3,"missionMode":1,"missionId":0,"fenceId":0,"rallyPointsId":0,"msg_name":"MISSION_CURRENT","MISSION_CURRENT":{"seq":447,"total":926,"missionState":3,"missionMode":1,"missionId":0,"fenceId":0,"rallyPointsId":0}},"Custom":{"dateTimeCaptureISO":"2025-11-25T10:12:46.501Z"},"hostname":"UA01-SRV01","synced":false,"syncAttempts":0,"lastSyncAttempt":null,"createdAt":"2026-03-06T13:30:05.210Z","_id":"1ADrYopZhkhcgx4a"}
{"timestamp":"2026-03-06T13:22:58.916Z","CameraFeedbackMessage":{"targetSystem":0,"camIdx":0,"imgIdx":48,"lat":611740210,"lng":89924640,"altMsl":699.219970703125,"altRel":65.1199951171875,"roll":0.8100000023841858,"pitch":-3.75,"yaw":189.44000244140625,"focLen":0,"flags":0,"completedCaptures":0,"msg_name":"CAMERA_FEEDBACK","CAMERA_FEEDBACK":{"targetSystem":0,"camIdx":0,"imgIdx":48,"lat":611740210,"lng":89924640,"altMsl":699.219970703125,"altRel":65.1199951171875,"roll":0.8100000023841858,"pitch":-3.75,"yaw":189.44000244140625,"focLen":0,"flags":0,"completedCaptures":0}},"GimbalOrientation":{"timeBootMs":2538583,"roll":-0.06037718057632446,"pitch":-45.692508697509766,"yaw":-155.093994140625,"yawAbsolute":34.93780517578125,"msg_name":"MOUNT_ORIENTATION","MOUNT_ORIENTATION":{"timeBootMs":2538583,"roll":-0.06037718057632446,"pitch":-45.692508697509766,"yaw":-155.093994140625,"yawAbsolute":34.93780517578125}},"SystemTime":{"seq":238,"total":926,"missionState":3,"missionMode":1,"missionId":0,"fenceId":0,"rallyPointsId":0,"msg_name":"MISSION_CURRENT","MISSION_CURRENT":{"seq":238,"total":926,"missionState":3,"missionMode":1,"missionId":0,"fenceId":0,"rallyPointsId":0}},"Custom":{"dateTimeCaptureISO":"2025-11-25T10:06:57.001Z"},"hostname":"UA01-SRV01","synced":false,"syncAttempts":5,"lastSyncAttempt":"2026-03-06T13:25:05.528Z","createdAt":"2026-03-06T13:22:58.917Z","_id":"1Tl4lZng6C3WvpKn"}
{"timestamp":"2026-03-06T13:31:17.705Z","CameraFeedbackMessage":{"targetSystem":0,"camIdx":0,"imgIdx":98,"lat":611630232,"lng":90017654,"altMsl":749.1900024414062,"altRel":115.08999633789062,"roll":0.1899999976158142,"pitch":-3.5999999046325684,"yaw":143.45999145507812,"focLen":0,"flags":0,"completedCaptures":0,"msg_name":"CAMERA_FEEDBACK","CAMERA_FEEDBACK":{"targetSystem":0,"camIdx":0,"imgIdx":98,"lat":611630232,"lng":90017654,"altMsl":749.1900024414062,"altRel":115.08999633789062,"roll":0.1899999976158142,"pitch":-3.5999999046325684,"yaw":143.45999145507812,"focLen":0,"flags":0,"completedCaptures":0}},"GimbalOrientation":{"timeBootMs":2367236,"roll":-0.04243357479572296,"pitch":-67.79560089111328,"yaw":-97.415771484375,"yawAbsolute":46.479827880859375,"msg_name":"MOUNT_ORIENTATION","MOUNT_ORIENTATION":{"timeBootMs":2367236,"roll":-0.04243357479572296,"pitch":-67.79560089111328,"yaw":-97.415771484375,"yawAbsolute":46.479827880859375}},"SystemTime":{"seq":485,"total":926,"missionState":3,"missionMode":1,"missionId":0,"fenceId":0,"rallyPointsId":0,"msg_name":"MISSION_CURRENT","MISSION_CURRENT":{"seq":485,"total":926,"missionState":3,"missionMode":1,"missionId":0,"fenceId":0,"rallyPointsId":0}},"Custom":{"dateTimeCaptureISO":"2025-11-25T10:13:44.999Z"},"hostname":"UA01-SRV01","synced":false,"syncAttempts":0,"lastSyncAttempt":null,"createdAt":"2026-03-06T13:31:17.705Z","_id":"1VMtW6nwyITb5fxW"}
{"timestamp":"2026-03-06T00:20:11.362Z","CameraFeedbackMessage":{"targetSystem":0,"camIdx":0,"imgIdx":177,"lat":599377433,"lng":95560071,"altMsl":471.2699890136719,"altRel":101.95999908447266,"roll":0.32999998331069946,"pitch":-3.0199999809265137,"yaw":170.13999938964844,"focLen":0,"flags":0,"completedCaptures":0,"msg_name":"CAMERA_FEEDBACK","CAMERA_FEEDBACK":{"targetSystem":0,"camIdx":0,"imgIdx":177,"lat":599377433,"lng":95560071,"altMsl":471.2699890136719,"altRel":101.95999908447266,"roll":0.32999998331069946,"pitch":-3.0199999809265137,"yaw":170.13999938964844,"focLen":0,"flags":0,"completedCaptures":0}},"GimbalOrientation":{"timeBootMs":420659,"roll":0.01670575886964798,"pitch":-46.68749237060547,"yaw":-13.4857177734375,"yawAbsolute":155.53440856933594,"msg_name":"MOUNT_ORIENTATION","MOUNT_ORIENTATION":{"timeBootMs":420659,"roll":0.01670575886964798,"pitch":-46.68749237060547,"yaw":-13.4857177734375,"yawAbsolute":155.53440856933594}},"SystemTime":{"seq":760,"total":3158,"missionState":3,"missionMode":1,"missionId":0,"fenceId":0,"rallyPointsId":0,"msg_name":"MISSION_CURRENT","MISSION_CURRENT":{"seq":760,"total":3158,"missionState":3,"missionMode":1,"missionId":0,"fenceId":0,"rallyPointsId":0}},"Custom":{"dateTimeCaptureISO":"2025-06-13T07:12:57.305Z"},"hostname":"DESKTOP-NNFRBAL","synced":true,"syncAttempts":0,"lastSyncAttempt":null,"createdAt":"2026-03-06T00:20:11.362Z","_id":"1a51OBekBQSSfVN5","syncedAt":"2026-03-06T12:52:35.153Z"}
{"timestamp":"2026-03-06T00:08:13.264Z","CameraFeedbackMessage":{"targetSystem":0,"camIdx":0,"imgIdx":120,"lat":599336326,"lng":95751407,"altMsl":448.55999755859375,"altRel":79.25,"roll":-3.309999942779541,"pitch":-2.5,"yaw":287.5400085449219,"focLen":0,"flags":0,"completedCaptures":0,"msg_name":"CAMERA_FEEDBACK","CAMERA_FEEDBACK":{"targetSystem":0,"camIdx":0,"imgIdx":120,"lat":599336326,"lng":95751407,"altMsl":448.55999755859375,"altRel":79.25,"roll":-3.309999942779541,"pitch":-2.5,"yaw":287.5400085449219,"focLen":0,"flags":0,"completedCaptures":0}},"GimbalOrientation":{"timeBootMs":332417,"roll":0.00902320072054863,"pitch":-75.04071807861328,"yaw":-90.7415771484375,"yawAbsolute":-162.8397674560547,"msg_name":"MOUNT_ORIENTATION","MOUNT_ORIENTATION":{"timeBootMs":332417,"roll":0.00902320072054863,"pitch":-75.04071807861328,"yaw":-90.7415771484375,"yawAbsolute":-162.8397674560547}},"SystemTime":{"seq":525,"total":3158,"missionState":3,"missionMode":1,"missionId":0,"fenceId":0,"rallyPointsId":0,"msg_name":"MISSION_CURRENT","MISSION_CURRENT":{"seq":525,"total":3158,"missionState":3,"missionMode":1,"missionId":0,"fenceId":0,"rallyPointsId":0}},"Custom":{"dateTimeCaptureISO":"2025-06-13T07:03:34.304Z"},"hostname":"DESKTOP-NNFRBAL","synced":true,"syncAttempts":0,"lastSyncAttempt":null,"createdAt":"2026-03-06T00:08:13.264Z","_id":"1jUap1stfctZMz9I","syncedAt":"2026-03-06T12:52:05.146Z"}
{"timestamp":"2026-03-06T00:01:56.824Z","CameraFeedbackMessage":{"targetSystem":0,"camIdx":0,"imgIdx":82,"lat":599261870,"lng":95800305,"altMsl":414.5199890136719,"altRel":45.209999084472656,"roll":3.059999942779541,"pitch":-1.2300000190734863,"yaw":10.579999923706055,"focLen":0,"flags":0,"completedCaptures":0,"msg_name":"CAMERA_FEEDBACK","CAMERA_FEEDBACK":{"targetSystem":0,"camIdx":0,"imgIdx":82,"lat":599261870,"lng":95800305,"altMsl":414.5199890136719,"altRel":45.209999084472656,"roll":3.059999942779541,"pitch":-1.2300000190734863,"yaw":10.579999923706055,"focLen":0,"flags":0,"completedCaptures":0}},"GimbalOrientation":{"timeBootMs":2497615,"roll":-0.04291040077805519,"pitch":-76.98993682861328,"yaw":-89.7747802734375,"yawAbsolute":-78.69688415527344,"msg_name":"MOUNT_ORIENTATION","MOUNT_ORIENTATION":{"timeBootMs":2497615,"roll":-0.04291040077805519,"pitch":-76.98993682861328,"yaw":-89.7747802734375,"yawAbsolute":-78.69688415527344}},"SystemTime":{"seq":331,"total":3158,"missionState":3,"missionMode":1,"missionId":0,"fenceId":0,"rallyPointsId":0,"msg_name":"MISSION_CURRENT","MISSION_CURRENT":{"seq":331,"total":3158,"missionState":3,"missionMode":1,"missionId":0,"fenceId":0,"rallyPointsId":0}},"Custom":{"dateTimeCaptureISO":"2025-06-13T06:58:40.307Z"},"hostname":"DESKTOP-NNFRBAL","synced":true,"syncAttempts":2,"lastSyncAttempt":"2026-03-06T12:51:05.198Z","createdAt":"2026-03-06T00:01:56.824Z","_id":"1ppOk2fAWru9as7R","syncedAt":"2026-03-06T12:51:35.189Z"}
{"timestamp":"2026-03-06T13:47:48.285Z","CameraFeedbackMessage":{"targetSystem":0,"camIdx":0,"imgIdx":178,"lat":611590813,"lng":90321217,"altMsl":736.5199584960938,"altRel":102.41999816894531,"roll":-0.38999998569488525,"pitch":-0.32999998331069946,"yaw":100.43999481201172,"focLen":0,"flags":0,"completedCaptures":0,"msg_name":"CAMERA_FEEDBACK","CAMERA_FEEDBACK":{"targetSystem":0,"camIdx":0,"imgIdx":178,"lat":611590813,"lng":90321217,"altMsl":736.5199584960938,"altRel":102.41999816894531,"roll":-0.38999998569488525,"pitch":-0.32999998331069946,"yaw":100.43999481201172,"focLen":0,"flags":0,"completedCaptures":0}},"GimbalOrientation":{"timeBootMs":2245492,"roll":-0.12089905887842178,"pitch":-49.341957092285156,"yaw":-155.797119140625,"yawAbsolute":-54.214996337890625,"msg_name":"MOUNT_ORIENTATION","MOUNT_ORIENTATION":{"timeBootMs":2245492,"roll":-0.12089905887842178,"pitch":-49.341957092285156,"yaw":-155.797119140625,"yawAbsolute":-54.214996337890625}},"SystemTime":{"seq":895,"total":926,"missionState":3,"missionMode":1,"missionId":0,"fenceId":0,"rallyPointsId":0,"msg_name":"MISSION_CURRENT","MISSION_CURRENT":{"seq":895,"total":926,"missionState":3,"missionMode":1,"missionId":0,"fenceId":0,"rallyPointsId":0}},"Custom":{"dateTimeCaptureISO":"2025-11-25T10:27:22.499Z"},"hostname":"UA01-SRV01","synced":false,"syncAttempts":0,"lastSyncAttempt":null,"createdAt":"2026-03-06T13:47:48.285Z","_id":"22fycllRea1nBgQZ"}
{"timestamp":"2026-03-06T00:08:28.663Z","CameraFeedbackMessage":{"targetSystem":0,"camIdx":0,"imgIdx":122,"lat":599337430,"lng":95744612,"altMsl":453.0899963378906,"altRel":83.77999877929688,"roll":-2.5299999713897705,"pitch":-2.0999999046325684,"yaw":288.54998779296875,"focLen":0,"flags":0,"completedCaptures":0,"msg_name":"CAMERA_FEEDBACK","CAMERA_FEEDBACK":{"targetSystem":0,"camIdx":0,"imgIdx":122,"lat":599337430,"lng":95744612,"altMsl":453.0899963378906,"altRel":83.77999877929688,"roll":-2.5299999713897705,"pitch":-2.0999999046325684,"yaw":288.54998779296875,"focLen":0,"flags":0,"completedCaptures":0}},"GimbalOrientation":{"timeBootMs":2383891,"roll":0.001931246486492455,"pitch":-46.67273712158203,"yaw":-166.8548583984375,"yawAbsolute":122.4307861328125,"msg_name":"MOUNT_ORIENTATION","MOUNT_ORIENTATION":{"timeBootMs":2383891,"roll":0.001931246486492455,"pitch":-46.67273712158203,"yaw":-166.8548583984375,"yawAbsolute":122.4307861328125}},"SystemTime":{"seq":537,"total":3158,"missionState":3,"missionMode":1,"missionId":0,"fenceId":0,"rallyPointsId":0,"msg_name":"MISSION_CURRENT","MISSION_CURRENT":{"seq":537,"total":3158,"missionState":3,"missionMode":1,"missionId":0,"fenceId":0,"rallyPointsId":0}},"Custom":{"dateTimeCaptureISO":"2025-06-13T07:03:46.304Z"},"hostname":"DESKTOP-NNFRBAL","synced":true,"syncAttempts":0,"lastSyncAttempt":null,"createdAt":"2026-03-06T00:08:28.663Z","_id":"28lrNDShQ1ObuL19","syncedAt":"2026-03-06T12:52:05.149Z"}
{"timestamp":"2026-03-06T00:03:26.183Z","CameraFeedbackMessage":{"targetSystem":0,"camIdx":0,"imgIdx":94,"lat":599280974,"lng":95796260,"altMsl":415.53997802734375,"altRel":46.22999954223633,"roll":-0.8199999928474426,"pitch":0.11999999731779099,"yaw":334.72998046875,"focLen":0,"flags":0,"completedCaptures":0,"msg_name":"CAMERA_FEEDBACK","CAMERA_FEEDBACK":{"targetSystem":0,"camIdx":0,"imgIdx":94,"lat":599280974,"lng":95796260,"altMsl":415.53997802734375,"altRel":46.22999954223633,"roll":-0.8199999928474426,"pitch":0.11999999731779099,"yaw":334.72998046875,"focLen":0,"flags":0,"completedCaptures":0}},"GimbalOrientation":{"timeBootMs":1278265,"roll":0.009043443016707897,"pitch":-76.46139526367188,"yaw":-91.0052490234375,"yawAbsolute":-117.17478942871094,"msg_name":"MOUNT_ORIENTATION","MOUNT_ORIENTATION":{"timeBootMs":1278265,"roll":0.009043443016707897,"pitch":-76.46139526367188,"yaw":-91.0052490234375,"yawAbsolute":-117.17478942871094}},"SystemTime":{"seq":403,"total":3158,"missionState":3,"missionMode":1,"missionId":0,"fenceId":0,"rallyPointsId":0,"msg_name":"MISSION_CURRENT","MISSION_CURRENT":{"seq":403,"total":3158,"missionState":3,"missionMode":1,"missionId":0,"fenceId":0,"rallyPointsId":0}},"Custom":{"dateTimeCaptureISO":"2025-06-13T06:59:49.804Z"},"hostname":"DESKTOP-NNFRBAL","synced":true,"syncAttempts":2,"lastSyncAttempt":"2026-03-06T12:51:05.214Z","createdAt":"2026-03-06T00:03:26.183Z","_id":"2OmC2Qqxi6wlfadL","syncedAt":"2026-03-06T12:51:35.209Z"}
{"timestamp":"2026-03-06T13:35:51.047Z","CameraFeedbackMessage":{"targetSystem":0,"camIdx":0,"imgIdx":122,"lat":611622943,"lng":90060435,"altMsl":756.6799926757812,"altRel":122.57999420166016,"roll":0.5399999618530273,"pitch":-3.359999895095825,"yaw":108.93000030517578,"focLen":0,"flags":0,"completedCaptures":0,"msg_name":"CAMERA_FEEDBACK","CAMERA_FEEDBACK":{"targetSystem":0,"camIdx":0,"imgIdx":122,"lat":611622943,"lng":90060435,"altMsl":756.6799926757812,"altRel":122.57999420166016,"roll":0.5399999618530273,"pitch":-3.359999895095825,"yaw":108.93000030517578,"focLen":0,"flags":0,"completedCaptures":0}},"GimbalOrientation":{"timeBootMs":1374232,"roll":-0.008167962543666363,"pitch":-70.24071502685547,"yaw":-97.196044921875,"yawAbsolute":12.08001708984375,"msg_name":"MOUNT_ORIENTATION","MOUNT_ORIENTATION":{"timeBootMs":1374232,"roll":-0.008167962543666363,"pitch":-70.24071502685547,"yaw":-97.196044921875,"yawAbsolute":12.08001708984375}},"SystemTime":{"seq":615,"total":926,"missionState":3,"missionMode":1,"missionId":0,"fenceId":0,"rallyPointsId":0,"msg_name":"MISSION_CURRENT","MISSION_CURRENT":{"seq":615,"total":926,"missionState":3,"missionMode":1,"missionId":0,"fenceId":0,"rallyPointsId":0}},"Custom":{"dateTimeCaptureISO":"2025-11-25T10:17:29.499Z"},"hostname":"UA01-SRV01","synced":false,"syncAttempts":0,"lastSyncAttempt":null,"createdAt":"2026-03-06T13:35:51.047Z","_id":"2QTRKNSDmATxrKrR"}
{"timestamp":"2026-03-06T13:28:03.697Z","CameraFeedbackMessage":{"targetSystem":0,"camIdx":0,"imgIdx":77,"lat":611666326,"lng":89945157,"altMsl":690.6499633789062,"altRel":56.54999923706055,"roll":-0.6499999761581421,"pitch":-3.1999998092651367,"yaw":165.50999450683594,"focLen":0,"flags":0,"completedCaptures":0,"msg_name":"CAMERA_FEEDBACK","CAMERA_FEEDBACK":{"targetSystem":0,"camIdx":0,"imgIdx":77,"lat":611666326,"lng":89945157,"altMsl":690.6499633789062,"altRel":56.54999923706055,"roll":-0.6499999761581421,"pitch":-3.1999998092651367,"yaw":165.50999450683594,"focLen":0,"flags":0,"completedCaptures":0}},"GimbalOrientation":{"timeBootMs":1604739,"roll":-0.041586652398109436,"pitch":-64.572021484375,"yaw":-97.349853515625,"yawAbsolute":68.19284057617188,"msg_name":"MOUNT_ORIENTATION","MOUNT_ORIENTATION":{"timeBootMs":1604739,"roll":-0.041586652398109436,"pitch":-64.572021484375,"yaw":-97.349853515625,"yawAbsolute":68.19284057617188}},"SystemTime":{"seq":381,"total":926,"missionState":3,"missionMode":1,"missionId":0,"fenceId":0,"rallyPointsId":0,"msg_name":"MISSION_CURRENT","MISSION_CURRENT":{"seq":381,"total":926,"missionState":3,"missionMode":1,"missionId":0,"fenceId":0,"rallyPointsId":0}},"Custom":{"dateTimeCaptureISO":"2025-11-25T10:11:07.002Z"},"hostname":"UA01-SRV01","synced":false,"syncAttempts":0,"lastSyncAttempt":null,"createdAt":"2026-03-06T13:28:03.697Z","_id":"2SwYlmNmmztRfLmv"}
{"timestamp":"2026-03-06T00:03:01.974Z","CameraFeedbackMessage":{"targetSystem":0,"camIdx":0,"imgIdx":91,"lat":599277199,"lng":95799847,"altMsl":415.1199951171875,"altRel":45.80999755859375,"roll":-1.0399999618530273,"pitch":-0.6599999666213989,"yaw":334.8599853515625,"focLen":0,"flags":0,"completedCaptures":0,"msg_name":"CAMERA_FEEDBACK","CAMERA_FEEDBACK":{"targetSystem":0,"camIdx":0,"imgIdx":91,"lat":599277199,"lng":95799847,"altMsl":415.1199951171875,"altRel":45.80999755859375,"roll":-1.0399999618530273,"pitch":-0.6599999666213989,"yaw":334.8599853515625,"focLen":0,"flags":0,"completedCaptures":0}},"GimbalOrientation":{"timeBootMs":2419457,"roll":0.0019074617885053158,"pitch":-74.7845230102539,"yaw":-92.6751708984375,"yawAbsolute":-118.05541229248047,"msg_name":"MOUNT_ORIENTATION","MOUNT_ORIENTATION":{"timeBootMs":2419457,"roll":0.0019074617885053158,"pitch":-74.7845230102539,"yaw":-92.6751708984375,"yawAbsolute":-118.05541229248047}},"SystemTime":{"seq":385,"total":3158,"missionState":3,"missionMode":1,"missionId":0,"fenceId":0,"rallyPointsId":0,"msg_name":"MISSION_CURRENT","MISSION_CURRENT":{"seq":385,"total":3158,"missionState":3,"missionMode":1,"missionId":0,"fenceId":0,"rallyPointsId":0}},"Custom":{"dateTimeCaptureISO":"2025-06-13T06:59:30.807Z"},"hostname":"DESKTOP-NNFRBAL","synced":true,"syncAttempts":2,"lastSyncAttempt":"2026-03-06T12:51:05.210Z","createdAt":"2026-03-06T00:03:01.974Z","_id":"2dNgmydUQZeuHfHX","syncedAt":"2026-03-06T12:51:35.204Z"}
{"timestamp":"2026-03-06T00:32:24.010Z","CameraFeedbackMessage":{"targetSystem":0,"camIdx":0,"imgIdx":251,"lat":599262421,"lng":95265500,"altMsl":491.7099914550781,"altRel":122.39999389648438,"roll":-1.9299999475479126,"pitch":-5.369999885559082,"yaw":223.95999145507812,"focLen":0,"flags":0,"completedCaptures":0,"msg_name":"CAMERA_FEEDBACK","CAMERA_FEEDBACK":{"targetSystem":0,"camIdx":0,"imgIdx":251,"lat":599262421,"lng":95265500,"altMsl":491.7099914550781,"altRel":122.39999389648438,"roll":-1.9299999475479126,"pitch":-5.369999885559082,"yaw":223.95999145507812,"focLen":0,"flags":0,"completedCaptures":0}},"GimbalOrientation":{"timeBootMs":3210716,"roll":-0.023134900256991386,"pitch":-45.5909309387207,"yaw":-167.0306396484375,"yawAbsolute":58.00469970703125,"msg_name":"MOUNT_ORIENTATION","MOUNT_ORIENTATION":{"timeBootMs":3210716,"roll":-0.023134900256991386,"pitch":-45.5909309387207,"yaw":-167.0306396484375,"yawAbsolute":58.00469970703125}},"SystemTime":{"seq":1111,"total":3158,"missionState":3,"missionMode":1,"missionId":0,"fenceId":0,"rallyPointsId":0,"msg_name":"MISSION_CURRENT","MISSION_CURRENT":{"seq":1111,"total":3158,"missionState":3,"missionMode":1,"missionId":0,"fenceId":0,"rallyPointsId":0}},"Custom":{"dateTimeCaptureISO":"2025-06-13T07:22:10.804Z"},"hostname":"DESKTOP-NNFRBAL","synced":true,"syncAttempts":0,"lastSyncAttempt":null,"createdAt":"2026-03-06T00:32:24.010Z","_id":"2gishXqtg2yaSNqg","syncedAt":"2026-03-06T12:53:05.351Z"}
{"timestamp":"2026-03-06T00:06:31.319Z","CameraFeedbackMessage":{"targetSystem":0,"camIdx":0,"imgIdx":113,"lat":599329275,"lng":95744000,"altMsl":448.0699768066406,"altRel":78.75999450683594,"roll":-1.6399999856948853,"pitch":-0.05999999865889549,"yaw":328.79998779296875,"focLen":0,"flags":0,"completedCaptures":0,"msg_name":"CAMERA_FEEDBACK","CAMERA_FEEDBACK":{"targetSystem":0,"camIdx":0,"imgIdx":113,"lat":599329275,"lng":95744000,"altMsl":448.0699768066406,"altRel":78.75999450683594,"roll":-1.6399999856948853,"pitch":-0.05999999865889549,"yaw":328.79998779296875,"focLen":0,"flags":0,"completedCaptures":0}},"GimbalOrientation":{"timeBootMs":3998736,"roll":-0.0005671665421687067,"pitch":-47.53683090209961,"yaw":-167.0306396484375,"yawAbsolute":162.689453125,"msg_name":"MOUNT_ORIENTATION","MOUNT_ORIENTATION":{"timeBootMs":3998736,"roll":-0.0005671665421687067,"pitch":-47.53683090209961,"yaw":-167.0306396484375,"yawAbsolute":162.689453125}},"SystemTime":{"seq":487,"total":3158,"missionState":3,"missionMode":1,"missionId":0,"fenceId":0,"rallyPointsId":0,"msg_name":"MISSION_CURRENT","MISSION_CURRENT":{"seq":487,"total":3158,"missionState":3,"missionMode":1,"missionId":0,"fenceId":0,"rallyPointsId":0}},"Custom":{"dateTimeCaptureISO":"2025-06-13T07:02:13.807Z"},"hostname":"DESKTOP-NNFRBAL","synced":true,"syncAttempts":2,"lastSyncAttempt":"2026-03-06T12:51:05.236Z","createdAt":"2026-03-06T00:06:31.319Z","_id":"33IeBvzqsAQvr5zL","syncedAt":"2026-03-06T12:51:35.235Z"}
{"timestamp":"2026-03-06T00:31:18.544Z","CameraFeedbackMessage":{"targetSystem":0,"camIdx":0,"imgIdx":244,"lat":599276975,"lng":95293353,"altMsl":504.5199890136719,"altRel":135.20999145507812,"roll":0,"pitch":-1.4499999284744263,"yaw":223.37998962402344,"focLen":0,"flags":0,"completedCaptures":0,"msg_name":"CAMERA_FEEDBACK","CAMERA_FEEDBACK":{"targetSystem":0,"camIdx":0,"imgIdx":244,"lat":599276975,"lng":95293353,"altMsl":504.5199890136719,"altRel":135.20999145507812,"roll":0,"pitch":-1.4499999284744263,"yaw":223.37998962402344,"focLen":0,"flags":0,"completedCaptures":0}},"GimbalOrientation":{"timeBootMs":3780577,"roll":0.0176381878554821,"pitch":-76.17546081542969,"yaw":-86.8743896484375,"yawAbsolute":136.73736572265625,"msg_name":"MOUNT_ORIENTATION","MOUNT_ORIENTATION":{"timeBootMs":3780577,"roll":0.0176381878554821,"pitch":-76.17546081542969,"yaw":-86.8743896484375,"yawAbsolute":136.73736572265625}},"SystemTime":{"seq":1078,"total":3158,"missionState":3,"missionMode":1,"missionId":0,"fenceId":0,"rallyPointsId":0,"msg_name":"MISSION_CURRENT","MISSION_CURRENT":{"seq":1078,"total":3158,"missionState":3,"missionMode":1,"missionId":0,"fenceId":0,"rallyPointsId":0}},"Custom":{"dateTimeCaptureISO":"2025-06-13T07:21:22.805Z"},"hostname":"DESKTOP-NNFRBAL","synced":true,"syncAttempts":0,"lastSyncAttempt":null,"createdAt":"2026-03-06T00:31:18.544Z","_id":"3B5LGrCDwmXiKmE8","syncedAt":"2026-03-06T12:53:05.337Z"}
{"timestamp":"2026-03-05T23:58:11.930Z","CameraFeedbackMessage":{"targetSystem":0,"camIdx":0,"imgIdx":67,"lat":599270374,"lng":95822854,"altMsl":407.0799865722656,"altRel":37.77000045776367,"roll":0.550000011920929,"pitch":-2.8399999141693115,"yaw":284.3299865722656,"focLen":0,"flags":0,"completedCaptures":0,"msg_name":"CAMERA_FEEDBACK","CAMERA_FEEDBACK":{"targetSystem":0,"camIdx":0,"imgIdx":67,"lat":599270374,"lng":95822854,"altMsl":407.0799865722656,"altRel":37.77000045776367,"roll":0.550000011920929,"pitch":-2.8399999141693115,"yaw":284.3299865722656,"focLen":0,"flags":0,"completedCaptures":0}},"GimbalOrientation":{"timeBootMs":3093481,"roll":-0.003654948901385069,"pitch":-76.96147155761719,"yaw":-83.2708740234375,"yawAbsolute":-158.6576385498047,"msg_name":"MOUNT_ORIENTATION","MOUNT_ORIENTATION":{"timeBootMs":3093481,"roll":-0.003654948901385069,"pitch":-76.96147155761719,"yaw":-83.2708740234375,"yawAbsolute":-158.6576385498047}},"SystemTime":{"seq":262,"total":3158,"missionState":3,"missionMode":1,"missionId":0,"fenceId":0,"rallyPointsId":0,"msg_name":"MISSION_CURRENT","MISSION_CURRENT":{"seq":262,"total":3158,"missionState":3,"missionMode":1,"missionId":0,"fenceId":0,"rallyPointsId":0}},"Custom":{"dateTimeCaptureISO":"2025-06-13T06:55:44.807Z"},"hostname":"DESKTOP-NNFRBAL","synced":true,"syncAttempts":2,"lastSyncAttempt":"2026-03-06T12:51:05.175Z","createdAt":"2026-03-05T23:58:11.930Z","_id":"3nlvJhZbFSnpyAFJ","syncedAt":"2026-03-06T12:51:35.165Z"}
{"timestamp":"2026-03-06T00:05:44.534Z","CameraFeedbackMessage":{"targetSystem":0,"camIdx":0,"imgIdx":108,"lat":599314480,"lng":95762017,"altMsl":439.1499938964844,"altRel":69.83999633789062,"roll":0.6599999666213989,"pitch":-5.170000076293945,"yaw":328.1000061035156,"focLen":0,"flags":0,"completedCaptures":0,"msg_name":"CAMERA_FEEDBACK","CAMERA_FEEDBACK":{"targetSystem":0,"camIdx":0,"imgIdx":108,"lat":599314480,"lng":95762017,"altMsl":439.1499938964844,"altRel":69.83999633789062,"roll":0.6599999666213989,"pitch":-5.170000076293945,"yaw":328.1000061035156,"focLen":0,"flags":0,"completedCaptures":0}},"GimbalOrientation":{"timeBootMs":2139112,"roll":0.011649721302092075,"pitch":-48.43098068237305,"yaw":-12.6947021484375,"yawAbsolute":-45.27912521362305,"msg_name":"MOUNT_ORIENTATION","MOUNT_ORIENTATION":{"timeBootMs":2139112,"roll":0.011649721302092075,"pitch":-48.43098068237305,"yaw":-12.6947021484375,"yawAbsolute":-45.27912521362305}},"SystemTime":{"seq":470,"total":3158,"missionState":3,"missionMode":1,"missionId":0,"fenceId":0,"rallyPointsId":0,"msg_name":"MISSION_CURRENT","MISSION_CURRENT":{"seq":470,"total":3158,"missionState":3,"missionMode":1,"missionId":0,"fenceId":0,"rallyPointsId":0}},"Custom":{"dateTimeCaptureISO":"2025-06-13T07:01:37.307Z"},"hostname":"DESKTOP-NNFRBAL","synced":true,"syncAttempts":2,"lastSyncAttempt":"2026-03-06T12:51:05.230Z","createdAt":"2026-03-06T00:05:44.535Z","_id":"3omBSIlc8dvEmIzn","syncedAt":"2026-03-06T12:51:35.229Z"}
{"timestamp":"2026-03-06T13:29:41.281Z","CameraFeedbackMessage":{"targetSystem":0,"camIdx":0,"imgIdx":87,"lat":611654981,"lng":89979215,"altMsl":731.3200073242188,"altRel":97.22000122070312,"roll":-0.09999999403953552,"pitch":-4.630000114440918,"yaw":142.87998962402344,"focLen":0,"flags":0,"completedCaptures":0,"msg_name":"CAMERA_FEEDBACK","CAMERA_FEEDBACK":{"targetSystem":0,"camIdx":0,"imgIdx":87,"lat":611654981,"lng":89979215,"altMsl":731.3200073242188,"altRel":97.22000122070312,"roll":-0.09999999403953552,"pitch":-4.630000114440918,"yaw":142.87998962402344,"focLen":0,"flags":0,"completedCaptures":0}},"GimbalOrientation":{"timeBootMs":2087163,"roll":-0.04655032232403755,"pitch":-46.235164642333984,"yaw":-155.203857421875,"yawAbsolute":-11.68658447265625,"msg_name":"MOUNT_ORIENTATION","MOUNT_ORIENTATION":{"timeBootMs":2087163,"roll":-0.04655032232403755,"pitch":-46.235164642333984,"yaw":-155.203857421875,"yawAbsolute":-11.68658447265625}},"SystemTime":{"seq":433,"total":926,"missionState":3,"missionMode":1,"missionId":0,"fenceId":0,"rallyPointsId":0,"msg_name":"MISSION_CURRENT","MISSION_CURRENT":{"seq":433,"total":926,"missionState":3,"missionMode":1,"missionId":0,"fenceId":0,"rallyPointsId":0}},"Custom":{"dateTimeCaptureISO":"2025-11-25T10:12:26.999Z"},"hostname":"UA01-SRV01","synced":false,"syncAttempts":0,"lastSyncAttempt":null,"createdAt":"2026-03-06T13:29:41.281Z","_id":"3tjCmppLa1M4pwlD"}
{"timestamp":"2026-03-06T00:10:55.621Z","CameraFeedbackMessage":{"targetSystem":0,"camIdx":0,"imgIdx":137,"lat":599355351,"lng":95632333,"altMsl":474.3299865722656,"altRel":105.0199966430664,"roll":-2.309999942779541,"pitch":-1.7899999618530273,"yaw":287.8299865722656,"focLen":0,"flags":0,"completedCaptures":0,"msg_name":"CAMERA_FEEDBACK","CAMERA_FEEDBACK":{"targetSystem":0,"camIdx":0,"imgIdx":137,"lat":599355351,"lng":95632333,"altMsl":474.3299865722656,"altRel":105.0199966430664,"roll":-2.309999942779541,"pitch":-1.7899999618530273,"yaw":287.8299865722656,"focLen":0,"flags":0,"completedCaptures":0}},"GimbalOrientation":{"timeBootMs":441738,"roll":0.002688885200768709,"pitch":-41.31462860107422,"yaw":-166.7669677734375,"yawAbsolute":122.06199645996094,"msg_name":"MOUNT_ORIENTATION","MOUNT_ORIENTATION":{"timeBootMs":441738,"roll":0.002688885200768709,"pitch":-41.31462860107422,"yaw":-166.7669677734375,"yawAbsolute":122.06199645996094}},"SystemTime":{"seq":593,"total":3158,"missionState":3,"missionMode":1,"missionId":0,"fenceId":0,"rallyPointsId":0,"msg_name":"MISSION_CURRENT","MISSION_CURRENT":{"seq":593,"total":3158,"missionState":3,"missionMode":1,"missionId":0,"fenceId":0,"rallyPointsId":0}},"Custom":{"dateTimeCaptureISO":"2025-06-13T07:05:42.804Z"},"hostname":"DESKTOP-NNFRBAL","synced":true,"syncAttempts":0,"lastSyncAttempt":null,"createdAt":"2026-03-06T00:10:55.621Z","_id":"3wV7g03IjgcFTWeS","syncedAt":"2026-03-06T12:52:05.178Z"}
{"timestamp":"2026-03-06T13:18:06.940Z","CameraFeedbackMessage":{"targetSystem":0,"camIdx":0,"imgIdx":21,"lat":611815842,"lng":89950890,"altMsl":678.2899780273438,"altRel":44.189998626708984,"roll":-1.2400000095367432,"pitch":-3.0899999141693115,"yaw":189.3699951171875,"focLen":0,"flags":0,"completedCaptures":0,"msg_name":"CAMERA_FEEDBACK","CAMERA_FEEDBACK":{"targetSystem":0,"camIdx":0,"imgIdx":21,"lat":611815842,"lng":89950890,"altMsl":678.2899780273438,"altRel":44.189998626708984,"roll":-1.2400000095367432,"pitch":-3.0899999141693115,"yaw":189.3699951171875,"focLen":0,"flags":0,"completedCaptures":0}},"GimbalOrientation":{"timeBootMs":1159377,"roll":0.018606629222631454,"pitch":-45.76478576660156,"yaw":-155.401611328125,"yawAbsolute":34.756378173828125,"msg_name":"MOUNT_ORIENTATION","MOUNT_ORIENTATION":{"timeBootMs":1159377,"roll":0.018606629222631454,"pitch":-45.76478576660156,"yaw":-155.401611328125,"yawAbsolute":34.756378173828125}},"SystemTime":{"seq":110,"total":926,"missionState":3,"missionMode":1,"missionId":0,"fenceId":0,"rallyPointsId":0,"msg_name":"MISSION_CURRENT","MISSION_CURRENT":{"seq":110,"total":926,"missionState":3,"missionMode":1,"missionId":0,"fenceId":0,"rallyPointsId":0}},"Custom":{"dateTimeCaptureISO":"2025-11-25T10:02:58.996Z"},"hostname":"UA01-SRV01","synced":false,"syncAttempts":5,"lastSyncAttempt":"2026-03-06T13:20:35.571Z","createdAt":"2026-03-06T13:18:06.940Z","_id":"4nx3zZ20dlEBS74n"}
{"timestamp":"2026-03-06T13:40:57.710Z","CameraFeedbackMessage":{"targetSystem":0,"camIdx":0,"imgIdx":151,"lat":611600411,"lng":90216749,"altMsl":747.0499877929688,"altRel":112.94999694824219,"roll":-0.29999998211860657,"pitch":-2.490000009536743,"yaw":100.77999877929688,"focLen":0,"flags":0,"completedCaptures":0,"msg_name":"CAMERA_FEEDBACK","CAMERA_FEEDBACK":{"targetSystem":0,"camIdx":0,"imgIdx":151,"lat":611600411,"lng":90216749,"altMsl":747.0499877929688,"altRel":112.94999694824219,"roll":-0.29999998211860657,"pitch":-2.490000009536743,"yaw":100.77999877929688,"focLen":0,"flags":0,"completedCaptures":0}},"GimbalOrientation":{"timeBootMs":897772,"roll":-0.07272928208112717,"pitch":-45.956539154052734,"yaw":-27.191162109375,"yawAbsolute":72.54861450195312,"msg_name":"MOUNT_ORIENTATION","MOUNT_ORIENTATION":{"timeBootMs":897772,"roll":-0.07272928208112717,"pitch":-45.956539154052734,"yaw":-27.191162109375,"yawAbsolute":72.54861450195312}},"SystemTime":{"seq":753,"total":926,"missionState":3,"missionMode":1,"missionId":0,"fenceId":0,"rallyPointsId":0,"msg_name":"MISSION_CURRENT","MISSION_CURRENT":{"seq":753,"total":926,"missionState":3,"missionMode":1,"missionId":0,"fenceId":0,"rallyPointsId":0}},"Custom":{"dateTimeCaptureISO":"2025-11-25T10:21:42.001Z"},"hostname":"UA01-SRV01","synced":false,"syncAttempts":0,"lastSyncAttempt":null,"createdAt":"2026-03-06T13:40:57.710Z","_id":"5B88wxK8ZaQkqphk"}
{"timestamp":"2026-03-06T00:03:21.713Z","CameraFeedbackMessage":{"targetSystem":0,"camIdx":0,"imgIdx":93,"lat":599280438,"lng":95796771,"altMsl":415.0799865722656,"altRel":45.77000045776367,"roll":-1.3700000047683716,"pitch":-0.6299999952316284,"yaw":334.6399841308594,"focLen":0,"flags":0,"completedCaptures":0,"msg_name":"CAMERA_FEEDBACK","CAMERA_FEEDBACK":{"targetSystem":0,"camIdx":0,"imgIdx":93,"lat":599280438,"lng":95796771,"altMsl":415.0799865722656,"altRel":45.77000045776367,"roll":-1.3700000047683716,"pitch":-0.6299999952316284,"yaw":334.6399841308594,"focLen":0,"flags":0,"completedCaptures":0}},"GimbalOrientation":{"timeBootMs":684817,"roll":-0.00688151502981782,"pitch":-41.5944709777832,"yaw":-166.8548583984375,"yawAbsolute":168.4840087890625,"msg_name":"MOUNT_ORIENTATION","MOUNT_ORIENTATION":{"timeBootMs":684817,"roll":-0.00688151502981782,"pitch":-41.5944709777832,"yaw":-166.8548583984375,"yawAbsolute":168.4840087890625}},"SystemTime":{"seq":397,"total":3158,"missionState":3,"missionMode":1,"missionId":0,"fenceId":0,"rallyPointsId":0,"msg_name":"MISSION_CURRENT","MISSION_CURRENT":{"seq":397,"total":3158,"missionState":3,"missionMode":1,"missionId":0,"fenceId":0,"rallyPointsId":0}},"Custom":{"dateTimeCaptureISO":"2025-06-13T06:59:46.306Z"},"hostname":"DESKTOP-NNFRBAL","synced":true,"syncAttempts":2,"lastSyncAttempt":"2026-03-06T12:51:05.213Z","createdAt":"2026-03-06T00:03:21.713Z","_id":"5GL2OZJ0JM9VgLSs","syncedAt":"2026-03-06T12:51:35.208Z"}
{"timestamp":"2026-03-06T00:20:31.705Z","CameraFeedbackMessage":{"targetSystem":0,"camIdx":0,"imgIdx":179,"lat":599370375,"lng":95562708,"altMsl":471.1099853515625,"altRel":101.79999542236328,"roll":2.240000009536743,"pitch":-3.429999828338623,"yaw":169.61000061035156,"focLen":0,"flags":0,"completedCaptures":0,"msg_name":"CAMERA_FEEDBACK","CAMERA_FEEDBACK":{"targetSystem":0,"camIdx":0,"imgIdx":179,"lat":599370375,"lng":95562708,"altMsl":471.1099853515625,"altRel":101.79999542236328,"roll":2.240000009536743,"pitch":-3.429999828338623,"yaw":169.61000061035156,"focLen":0,"flags":0,"completedCaptures":0}},"GimbalOrientation":{"timeBootMs":3065751,"roll":0.012235140427947044,"pitch":-47.27458953857422,"yaw":-167.2064208984375,"yawAbsolute":3.323089599609375,"msg_name":"MOUNT_ORIENTATION","MOUNT_ORIENTATION":{"timeBootMs":3065751,"roll":0.012235140427947044,"pitch":-47.27458953857422,"yaw":-167.2064208984375,"yawAbsolute":3.323089599609375}},"SystemTime":{"seq":767,"total":3158,"missionState":3,"missionMode":1,"missionId":0,"fenceId":0,"rallyPointsId":0,"msg_name":"MISSION_CURRENT","MISSION_CURRENT":{"seq":767,"total":3158,"missionState":3,"missionMode":1,"missionId":0,"fenceId":0,"rallyPointsId":0}},"Custom":{"dateTimeCaptureISO":"2025-06-13T07:13:12.807Z"},"hostname":"DESKTOP-NNFRBAL","synced":true,"syncAttempts":0,"lastSyncAttempt":null,"createdAt":"2026-03-06T00:20:31.706Z","_id":"5bRaXKrQ8jfyASGD","syncedAt":"2026-03-06T12:52:35.159Z"}
{"timestamp":"2026-03-06T13:32:35.088Z","CameraFeedbackMessage":{"targetSystem":0,"camIdx":0,"imgIdx":104,"lat":611622860,"lng":90034160,"altMsl":749.1399536132812,"altRel":115.04000091552734,"roll":0.9199999570846558,"pitch":-2.2899999618530273,"yaw":185.34999084472656,"focLen":0,"flags":0,"completedCaptures":0,"msg_name":"CAMERA_FEEDBACK","CAMERA_FEEDBACK":{"targetSystem":0,"camIdx":0,"imgIdx":104,"lat":611622860,"lng":90034160,"altMsl":749.1399536132812,"altRel":115.04000091552734,"roll":0.9199999570846558,"pitch":-2.2899999618530273,"yaw":185.34999084472656,"focLen":0,"flags":0,"completedCaptures":0}},"GimbalOrientation":{"timeBootMs":4145676,"roll":-0.009961984120309353,"pitch":-65.87763214111328,"yaw":-97.086181640625,"yawAbsolute":88.68753051757812,"msg_name":"MOUNT_ORIENTATION","MOUNT_ORIENTATION":{"timeBootMs":4145676,"roll":-0.009961984120309353,"pitch":-65.87763214111328,"yaw":-97.086181640625,"yawAbsolute":88.68753051757812}},"SystemTime":{"seq":518,"total":926,"missionState":3,"missionMode":1,"missionId":0,"fenceId":0,"rallyPointsId":0,"msg_name":"MISSION_CURRENT","MISSION_CURRENT":{"seq":518,"total":926,"missionState":3,"missionMode":1,"missionId":0,"fenceId":0,"rallyPointsId":0}},"Custom":{"dateTimeCaptureISO":"2025-11-25T10:14:46.999Z"},"hostname":"UA01-SRV01","synced":false,"syncAttempts":0,"lastSyncAttempt":null,"createdAt":"2026-03-06T13:32:35.088Z","_id":"5w3OdGL6CzeMjtOf"}
{"timestamp":"2026-03-06T00:11:52.584Z","CameraFeedbackMessage":{"targetSystem":0,"camIdx":0,"imgIdx":143,"lat":599361620,"lng":95593153,"altMsl":469.3199768066406,"altRel":100.00999450683594,"roll":0.1599999964237213,"pitch":-2.990000009536743,"yaw":287.3999938964844,"focLen":0,"flags":0,"completedCaptures":0,"msg_name":"CAMERA_FEEDBACK","CAMERA_FEEDBACK":{"targetSystem":0,"camIdx":0,"imgIdx":143,"lat":599361620,"lng":95593153,"altMsl":469.3199768066406,"altRel":100.00999450683594,"roll":0.1599999964237213,"pitch":-2.990000009536743,"yaw":287.3999938964844,"focLen":0,"flags":0,"completedCaptures":0}},"GimbalOrientation":{"timeBootMs":3708863,"roll":-0.006752188317477703,"pitch":-46.66461944580078,"yaw":-166.2396240234375,"yawAbsolute":122.15335083007812,"msg_name":"MOUNT_ORIENTATION","MOUNT_ORIENTATION":{"timeBootMs":3708863,"roll":-0.006752188317477703,"pitch":-46.66461944580078,"yaw":-166.2396240234375,"yawAbsolute":122.15335083007812}},"SystemTime":{"seq":617,"total":3158,"missionState":3,"missionMode":1,"missionId":0,"fenceId":0,"rallyPointsId":0,"msg_name":"MISSION_CURRENT","MISSION_CURRENT":{"seq":617,"total":3158,"missionState":3,"missionMode":1,"missionId":0,"fenceId":0,"rallyPointsId":0}},"Custom":{"dateTimeCaptureISO":"2025-06-13T07:06:27.804Z"},"hostname":"DESKTOP-NNFRBAL","synced":true,"syncAttempts":0,"lastSyncAttempt":null,"createdAt":"2026-03-06T00:11:52.584Z","_id":"63wDXnmoOiNWqf5p","syncedAt":"2026-03-06T12:52:05.187Z"}
{"timestamp":"2026-03-06T00:12:03.188Z","CameraFeedbackMessage":{"targetSystem":0,"camIdx":0,"imgIdx":144,"lat":599362948,"lng":95584951,"altMsl":469.7099914550781,"altRel":100.4000015258789,"roll":-2,"pitch":-2.8299999237060547,"yaw":287.8999938964844,"focLen":0,"flags":0,"completedCaptures":0,"msg_name":"CAMERA_FEEDBACK","CAMERA_FEEDBACK":{"targetSystem":0,"camIdx":0,"imgIdx":144,"lat":599362948,"lng":95584951,"altMsl":469.7099914550781,"altRel":100.4000015258789,"roll":-2,"pitch":-2.8299999237060547,"yaw":287.8999938964844,"focLen":0,"flags":0,"completedCaptures":0}},"GimbalOrientation":{"timeBootMs":838187,"roll":0.004455220885574818,"pitch":-45.64702606201172,"yaw":-13.5736083984375,"yawAbsolute":-86.25849151611328,"msg_name":"MOUNT_ORIENTATION","MOUNT_ORIENTATION":{"timeBootMs":838187,"roll":0.004455220885574818,"pitch":-45.64702606201172,"yaw":-13.5736083984375,"yawAbsolute":-86.25849151611328}},"SystemTime":{"seq":622,"total":3158,"missionState":3,"missionMode":1,"missionId":0,"fenceId":0,"rallyPointsId":0,"msg_name":"MISSION_CURRENT","MISSION_CURRENT":{"seq":622,"total":3158,"missionState":3,"missionMode":1,"missionId":0,"fenceId":0,"rallyPointsId":0}},"Custom":{"dateTimeCaptureISO":"2025-06-13T07:06:36.306Z"},"hostname":"DESKTOP-NNFRBAL","synced":true,"syncAttempts":0,"lastSyncAttempt":null,"createdAt":"2026-03-06T00:12:03.188Z","_id":"6MnQQFwLe5kwtLKm","syncedAt":"2026-03-06T12:52:05.189Z"}
{"timestamp":"2026-03-06T00:01:37.202Z","CameraFeedbackMessage":{"targetSystem":0,"camIdx":0,"imgIdx":80,"lat":599255346,"lng":95797790,"altMsl":411.55999755859375,"altRel":42.25,"roll":-1.5499999523162842,"pitch":-2.4800000190734863,"yaw":11.079999923706055,"focLen":0,"flags":0,"completedCaptures":0,"msg_name":"CAMERA_FEEDBACK","CAMERA_FEEDBACK":{"targetSystem":0,"camIdx":0,"imgIdx":80,"lat":599255346,"lng":95797790,"altMsl":411.55999755859375,"altRel":42.25,"roll":-1.5499999523162842,"pitch":-2.4800000190734863,"yaw":11.079999923706055,"focLen":0,"flags":0,"completedCaptures":0}},"GimbalOrientation":{"timeBootMs":4232268,"roll":-0.016503728926181793,"pitch":-46.03122329711914,"yaw":-166.5911865234375,"yawAbsolute":-154.61231994628906,"msg_name":"MOUNT_ORIENTATION","MOUNT_ORIENTATION":{"timeBootMs":4232268,"roll":-0.016503728926181793,"pitch":-46.03122329711914,"yaw":-166.5911865234375,"yawAbsolute":-154.61231994628906}},"SystemTime":{"seq":323,"total":3158,"missionState":3,"missionMode":1,"missionId":0,"fenceId":0,"rallyPointsId":0,"msg_name":"MISSION_CURRENT","MISSION_CURRENT":{"seq":323,"total":3158,"missionState":3,"missionMode":1,"missionId":0,"fenceId":0,"rallyPointsId":0}},"Custom":{"dateTimeCaptureISO":"2025-06-13T06:58:25.307Z"},"hostname":"DESKTOP-NNFRBAL","synced":true,"syncAttempts":2,"lastSyncAttempt":"2026-03-06T12:51:05.195Z","createdAt":"2026-03-06T00:01:37.202Z","_id":"6vFQrGRYKFQ0d8Ie","syncedAt":"2026-03-06T12:51:35.183Z"}
{"timestamp":"2026-03-06T00:05:21.620Z","CameraFeedbackMessage":{"targetSystem":0,"camIdx":0,"imgIdx":106,"lat":599308582,"lng":95769297,"altMsl":442.25,"altRel":72.93999481201172,"roll":-0.4899999797344208,"pitch":0.7699999809265137,"yaw":328.3899841308594,"focLen":0,"flags":0,"completedCaptures":0,"msg_name":"CAMERA_FEEDBACK","CAMERA_FEEDBACK":{"targetSystem":0,"camIdx":0,"imgIdx":106,"lat":599308582,"lng":95769297,"altMsl":442.25,"altRel":72.93999481201172,"roll":-0.4899999797344208,"pitch":0.7699999809265137,"yaw":328.3899841308594,"focLen":0,"flags":0,"completedCaptures":0}},"GimbalOrientation":{"timeBootMs":3415959,"roll":-0.01609724946320057,"pitch":-76.07643127441406,"yaw":-93.1146240234375,"yawAbsolute":-125.78998565673828,"msg_name":"MOUNT_ORIENTATION","MOUNT_ORIENTATION":{"timeBootMs":3415959,"roll":-0.01609724946320057,"pitch":-76.07643127441406,"yaw":-93.1146240234375,"yawAbsolute":-125.78998565673828}},"SystemTime":{"seq":461,"total":3158,"missionState":3,"missionMode":1,"missionId":0,"fenceId":0,"rallyPointsId":0,"msg_name":"MISSION_CURRENT","MISSION_CURRENT":{"seq":461,"total":3158,"missionState":3,"missionMode":1,"missionId":0,"fenceId":0,"rallyPointsId":0}},"Custom":{"dateTimeCaptureISO":"2025-06-13T07:01:19.305Z"},"hostname":"DESKTOP-NNFRBAL","synced":true,"syncAttempts":2,"lastSyncAttempt":"2026-03-06T12:51:05.228Z","createdAt":"2026-03-06T00:05:21.620Z","_id":"6yntaaUaA5O4sr5H","syncedAt":"2026-03-06T12:51:35.226Z"}
{"timestamp":"2026-03-06T13:48:14.069Z","CameraFeedbackMessage":{"targetSystem":0,"camIdx":0,"imgIdx":181,"lat":611589832,"lng":90331602,"altMsl":739.8800048828125,"altRel":105.77999877929688,"roll":-0.6499999761581421,"pitch":-3.240000009536743,"yaw":101.43999481201172,"focLen":0,"flags":0,"completedCaptures":0,"msg_name":"CAMERA_FEEDBACK","CAMERA_FEEDBACK":{"targetSystem":0,"camIdx":0,"imgIdx":181,"lat":611589832,"lng":90331602,"altMsl":739.8800048828125,"altRel":105.77999877929688,"roll":-0.6499999761581421,"pitch":-3.240000009536743,"yaw":101.43999481201172,"focLen":0,"flags":0,"completedCaptures":0}},"GimbalOrientation":{"timeBootMs":1321920,"roll":-0.034992776811122894,"pitch":-50.12343215942383,"yaw":-155.863037109375,"yawAbsolute":-53.5032958984375,"msg_name":"MOUNT_ORIENTATION","MOUNT_ORIENTATION":{"timeBootMs":1321920,"roll":-0.034992776811122894,"pitch":-50.12343215942383,"yaw":-155.863037109375,"yawAbsolute":-53.5032958984375}},"SystemTime":{"seq":913,"total":926,"missionState":3,"missionMode":1,"missionId":0,"fenceId":0,"rallyPointsId":0,"msg_name":"MISSION_CURRENT","MISSION_CURRENT":{"seq":913,"total":926,"missionState":3,"missionMode":1,"missionId":0,"fenceId":0,"rallyPointsId":0}},"Custom":{"dateTimeCaptureISO":"2025-11-25T10:27:42.501Z"},"hostname":"UA01-SRV01","synced":false,"syncAttempts":0,"lastSyncAttempt":null,"createdAt":"2026-03-06T13:48:14.069Z","_id":"71Z15Scbpa1vug54"}
{"timestamp":"2026-03-06T13:42:34.560Z","CameraFeedbackMessage":{"targetSystem":0,"camIdx":0,"imgIdx":160,"lat":611593644,"lng":90232005,"altMsl":734.719970703125,"altRel":100.6199951171875,"roll":0.47999998927116394,"pitch":-2.740000009536743,"yaw":206.8199920654297,"focLen":0,"flags":0,"completedCaptures":0,"msg_name":"CAMERA_FEEDBACK","CAMERA_FEEDBACK":{"targetSystem":0,"camIdx":0,"imgIdx":160,"lat":611593644,"lng":90232005,"altMsl":734.719970703125,"altRel":100.6199951171875,"roll":0.47999998927116394,"pitch":-2.740000009536743,"yaw":206.8199920654297,"focLen":0,"flags":0,"completedCaptures":0}},"GimbalOrientation":{"timeBootMs":1634333,"roll":-0.048354774713516235,"pitch":-55.01995849609375,"yaw":-27.366943359375,"yawAbsolute":178.1051025390625,"msg_name":"MOUNT_ORIENTATION","MOUNT_ORIENTATION":{"timeBootMs":1634333,"roll":-0.048354774713516235,"pitch":-55.01995849609375,"yaw":-27.366943359375,"yawAbsolute":178.1051025390625}},"SystemTime":{"seq":800,"total":926,"missionState":3,"missionMode":1,"missionId":0,"fenceId":0,"rallyPointsId":0,"msg_name":"MISSION_CURRENT","MISSION_CURRENT":{"seq":800,"total":926,"missionState":3,"missionMode":1,"missionId":0,"fenceId":0,"rallyPointsId":0}},"Custom":{"dateTimeCaptureISO":"2025-11-25T10:23:02.999Z"},"hostname":"UA01-SRV01","synced":false,"syncAttempts":0,"lastSyncAttempt":null,"createdAt":"2026-03-06T13:42:34.560Z","_id":"72vNfazWZMhdCFZO"}
{"timestamp":"2026-03-06T00:21:54.425Z","CameraFeedbackMessage":{"targetSystem":0,"camIdx":0,"imgIdx":185,"lat":599362132,"lng":95552047,"altMsl":470.6099853515625,"altRel":101.29999542236328,"roll":-1.159999966621399,"pitch":-0.4399999976158142,"yaw":242.8199920654297,"focLen":0,"flags":0,"completedCaptures":0,"msg_name":"CAMERA_FEEDBACK","CAMERA_FEEDBACK":{"targetSystem":0,"camIdx":0,"imgIdx":185,"lat":599362132,"lng":95552047,"altMsl":470.6099853515625,"altRel":101.29999542236328,"roll":-1.159999966621399,"pitch":-0.4399999976158142,"yaw":242.8199920654297,"focLen":0,"flags":0,"completedCaptures":0}},"GimbalOrientation":{"timeBootMs":913848,"roll":0.0020163911394774914,"pitch":-44.35637664794922,"yaw":-166.9427490234375,"yawAbsolute":76.681640625,"msg_name":"MOUNT_ORIENTATION","MOUNT_ORIENTATION":{"timeBootMs":913848,"roll":0.0020163911394774914,"pitch":-44.35637664794922,"yaw":-166.9427490234375,"yawAbsolute":76.681640625}},"SystemTime":{"seq":793,"total":3158,"missionState":3,"missionMode":1,"missionId":0,"fenceId":0,"rallyPointsId":0,"msg_name":"MISSION_CURRENT","MISSION_CURRENT":{"seq":793,"total":3158,"missionState":3,"missionMode":1,"missionId":0,"fenceId":0,"rallyPointsId":0}},"Custom":{"dateTimeCaptureISO":"2025-06-13T07:14:16.805Z"},"hostname":"DESKTOP-NNFRBAL","synced":true,"syncAttempts":0,"lastSyncAttempt":null,"createdAt":"2026-03-06T00:21:54.425Z","_id":"7HZFZnM0hU1Ts3U1","syncedAt":"2026-03-06T12:52:35.167Z"}
{"timestamp":"2026-03-06T13:36:46.494Z","CameraFeedbackMessage":{"targetSystem":0,"camIdx":0,"imgIdx":128,"lat":611616012,"lng":90102311,"altMsl":722.219970703125,"altRel":88.1199951171875,"roll":1.1899999380111694,"pitch":-4.529999732971191,"yaw":108.80999755859375,"focLen":0,"flags":0,"completedCaptures":0,"msg_name":"CAMERA_FEEDBACK","CAMERA_FEEDBACK":{"targetSystem":0,"camIdx":0,"imgIdx":128,"lat":611616012,"lng":90102311,"altMsl":722.219970703125,"altRel":88.1199951171875,"roll":1.1899999380111694,"pitch":-4.529999732971191,"yaw":108.80999755859375,"focLen":0,"flags":0,"completedCaptures":0}},"GimbalOrientation":{"timeBootMs":544366,"roll":-0.027798188850283623,"pitch":-66.51519775390625,"yaw":-95.767822265625,"yawAbsolute":13.152069091796875,"msg_name":"MOUNT_ORIENTATION","MOUNT_ORIENTATION":{"timeBootMs":544366,"roll":-0.027798188850283623,"pitch":-66.51519775390625,"yaw":-95.767822265625,"yawAbsolute":13.152069091796875}},"SystemTime":{"seq":643,"total":926,"missionState":3,"missionMode":1,"missionId":0,"fenceId":0,"rallyPointsId":0,"msg_name":"MISSION_CURRENT","MISSION_CURRENT":{"seq":643,"total":926,"missionState":3,"missionMode":1,"missionId":0,"fenceId":0,"rallyPointsId":0}},"Custom":{"dateTimeCaptureISO":"2025-11-25T10:18:15.501Z"},"hostname":"UA01-SRV01","synced":false,"syncAttempts":0,"lastSyncAttempt":null,"createdAt":"2026-03-06T13:36:46.494Z","_id":"7RCh8ki2NmPmoxsY"}
{"timestamp":"2026-03-06T00:05:01.682Z","CameraFeedbackMessage":{"targetSystem":0,"camIdx":0,"imgIdx":104,"lat":599305520,"lng":95773040,"altMsl":439.8999938964844,"altRel":70.58999633789062,"roll":0.09999999403953552,"pitch":1.309999942779541,"yaw":328.5299987792969,"focLen":0,"flags":0,"completedCaptures":0,"msg_name":"CAMERA_FEEDBACK","CAMERA_FEEDBACK":{"targetSystem":0,"camIdx":0,"imgIdx":104,"lat":599305520,"lng":95773040,"altMsl":439.8999938964844,"altRel":70.58999633789062,"roll":0.09999999403953552,"pitch":1.309999942779541,"yaw":328.5299987792969,"focLen":0,"flags":0,"completedCaptures":0}},"GimbalOrientation":{"timeBootMs":821733,"roll":-0.018884649500250816,"pitch":-43.381004333496094,"yaw":-13.9251708984375,"yawAbsolute":-45.7366943359375,"msg_name":"MOUNT_ORIENTATION","MOUNT_ORIENTATION":{"timeBootMs":821733,"roll":-0.018884649500250816,"pitch":-43.381004333496094,"yaw":-13.9251708984375,"yawAbsolute":-45.7366943359375}},"SystemTime":{"seq":449,"total":3158,"missionState":3,"missionMode":1,"missionId":0,"fenceId":0,"rallyPointsId":0,"msg_name":"MISSION_CURRENT","MISSION_CURRENT":{"seq":449,"total":3158,"missionState":3,"missionMode":1,"missionId":0,"fenceId":0,"rallyPointsId":0}},"Custom":{"dateTimeCaptureISO":"2025-06-13T07:01:03.804Z"},"hostname":"DESKTOP-NNFRBAL","synced":true,"syncAttempts":2,"lastSyncAttempt":"2026-03-06T12:51:05.226Z","createdAt":"2026-03-06T00:05:01.682Z","_id":"7kTt3QuyOVE634TI","syncedAt":"2026-03-06T12:51:35.224Z"}
