{"timestamp":"2026-03-10T13:39:43.959Z","CameraFeedbackMessage":{"targetSystem":0,"camIdx":0,"imgIdx":134,"lat":612390844,"lng":88818759,"altMsl":794.719970703125,"altRel":-116.38999938964844,"roll":-0.10999999940395355,"pitch":-1.559999942779541,"yaw":122.3499984741211,"focLen":0,"flags":0,"completedCaptures":0},"GimbalOrientation":{"timeBootMs":1230773,"roll":-0.011307446286082268,"pitch":-64.4001235961914,"yaw":-99.525146484375,"yawAbsolute":22.663631439208984},"SystemTime":{"seq":694,"total":3759,"missionState":3,"missionMode":1,"missionId":0,"fenceId":0,"rallyPointsId":0,"msg_name":"MISSION_CURRENT","MISSION_CURRENT":{"seq":694,"total":3759,"missionState":3,"missionMode":1,"missionId":0,"fenceId":0,"rallyPointsId":0}},"Mastdata":null,"Custom":{"dateTimeCaptureISO":"2025-11-07T09:09:10.716Z"},"hostname":"UA01-SRV01","synced":true,"syncAttempts":0,"lastSyncAttempt":null,"createdAt":"2026-03-10T13:39:43.959Z","_id":"0LkVvbZRnpYWxhL2","syncedAt":"2026-03-10T13:39:44.057Z"}
{"timestamp":"2026-03-10T13:45:31.551Z","CameraFeedbackMessage":{"targetSystem":0,"camIdx":0,"imgIdx":183,"lat":612336061,"lng":88921022,"altMsl":798.0599975585938,"altRel":-113.04999542236328,"roll":0.5399999618530273,"pitch":-2.069999933242798,"yaw":142.0500030517578,"focLen":0,"flags":0,"completedCaptures":0},"GimbalOrientation":{"timeBootMs":850897,"roll":-0.002321596024557948,"pitch":-47.08979034423828,"yaw":-28.377685546875,"yawAbsolute":113.21110534667969},"SystemTime":{"seq":984,"total":3759,"missionState":3,"missionMode":1,"missionId":0,"fenceId":0,"rallyPointsId":0,"msg_name":"MISSION_CURRENT","MISSION_CURRENT":{"seq":984,"total":3759,"missionState":3,"missionMode":1,"missionId":0,"fenceId":0,"rallyPointsId":0}},"Mastdata":null,"Custom":{"dateTimeCaptureISO":"2025-11-07T09:13:49.714Z"},"hostname":"UA01-SRV01","synced":true,"syncAttempts":0,"lastSyncAttempt":null,"createdAt":"2026-03-10T13:45:31.551Z","_id":"0MlCNMVXE6bLrxTV","syncedAt":"2026-03-10T13:45:31.664Z"}
{"timestamp":"2026-03-10T13:42:25.899Z","CameraFeedbackMessage":{"targetSystem":0,"camIdx":0,"imgIdx":156,"lat":612367482,"lng":88870172,"altMsl":795.6199951171875,"altRel":-115.48999786376953,"roll":0.029999999329447746,"pitch":-1.409999966621399,"yaw":141.67999267578125,"focLen":0,"flags":0,"completedCaptures":0},"GimbalOrientation":{"timeBootMs":1647143,"roll":-0.049657583236694336,"pitch":-45.439517974853516,"yaw":-28.531494140625,"yawAbsolute":112.75936126708984},"SystemTime":{"seq":822,"total":3759,"missionState":3,"missionMode":1,"missionId":0,"fenceId":0,"rallyPointsId":0,"msg_name":"MISSION_CURRENT","MISSION_CURRENT":{"seq":822,"total":3759,"missionState":3,"missionMode":1,"missionId":0,"fenceId":0,"rallyPointsId":0}},"Mastdata":null,"Custom":{"dateTimeCaptureISO":"2025-11-07T09:11:21.208Z"},"hostname":"UA01-SRV01","synced":true,"syncAttempts":0,"lastSyncAttempt":null,"createdAt":"2026-03-10T13:42:25.899Z","_id":"0RQnHkZ91DMNjnTt","syncedAt":"2026-03-10T13:42:26.003Z"}
{"timestamp":"2026-03-10T13:34:27.705Z","CameraFeedbackMessage":{"targetSystem":0,"camIdx":0,"imgIdx":99,"lat":612425153,"lng":88743637,"altMsl":806.3999633789062,"altRel":-104.70999908447266,"roll":-0.550000011920929,"pitch":-2.190000057220459,"yaw":52.04999923706055,"focLen":0,"flags":0,"completedCaptures":0},"GimbalOrientation":{"timeBootMs":1230504,"roll":0.008365652523934841,"pitch":-48.89899826049805,"yaw":-156.324462890625,"yawAbsolute":-103.49520874023438},"SystemTime":{"seq":501,"total":3759,"missionState":3,"missionMode":1,"missionId":0,"fenceId":0,"rallyPointsId":0,"msg_name":"MISSION_CURRENT","MISSION_CURRENT":{"seq":501,"total":3759,"missionState":3,"missionMode":1,"missionId":0,"fenceId":0,"rallyPointsId":0}},"Mastdata":null,"Custom":{"dateTimeCaptureISO":"2025-11-07T09:04:55.216Z"},"hostname":"UA01-SRV01","synced":true,"syncAttempts":0,"lastSyncAttempt":null,"createdAt":"2026-03-10T13:34:27.705Z","_id":"0XTfLlHfjsb4IMsh","syncedAt":"2026-03-10T13:34:27.803Z"}
{"timestamp":"2026-03-10T13:50:18.342Z","CameraFeedbackMessage":{"targetSystem":0,"camIdx":0,"imgIdx":225,"lat":612286583,"lng":88999202,"altMsl":836.8999633789062,"altRel":-74.20999908447266,"roll":0.9399999976158142,"pitch":-1.1100000143051147,"yaw":161.69000244140625,"focLen":0,"flags":0,"completedCaptures":0},"GimbalOrientation":{"timeBootMs":1300506,"roll":-0.0005228116642683744,"pitch":-50.760154724121094,"yaw":-28.465576171875,"yawAbsolute":132.77381896972656},"SystemTime":{"seq":1236,"total":3759,"missionState":3,"missionMode":1,"missionId":0,"fenceId":0,"rallyPointsId":0,"msg_name":"MISSION_CURRENT","MISSION_CURRENT":{"seq":1236,"total":3759,"missionState":3,"missionMode":1,"missionId":0,"fenceId":0,"rallyPointsId":0}},"Mastdata":null,"Custom":{"dateTimeCaptureISO":"2025-11-07T09:17:42.711Z"},"hostname":"UA01-SRV01","synced":true,"syncAttempts":0,"lastSyncAttempt":null,"createdAt":"2026-03-10T13:50:18.343Z","_id":"0eIpQMgojQMWr01T","syncedAt":"2026-03-10T13:50:18.453Z"}
{"timestamp":"2026-03-10T13:43:16.174Z","CameraFeedbackMessage":{"targetSystem":0,"camIdx":0,"imgIdx":164,"lat":612358898,"lng":88884050,"altMsl":796.3800048828125,"altRel":-114.72999572753906,"roll":0.3400000035762787,"pitch":-1.4499999284744263,"yaw":142.0399932861328,"focLen":0,"flags":0,"completedCaptures":0},"GimbalOrientation":{"timeBootMs":4061715,"roll":-0.026626622304320335,"pitch":-64.17321014404297,"yaw":-99.437255859375,"yawAbsolute":42.096466064453125},"SystemTime":{"seq":870,"total":3759,"missionState":3,"missionMode":1,"missionId":0,"fenceId":0,"rallyPointsId":0,"msg_name":"MISSION_CURRENT","MISSION_CURRENT":{"seq":870,"total":3759,"missionState":3,"missionMode":1,"missionId":0,"fenceId":0,"rallyPointsId":0}},"Mastdata":null,"Custom":{"dateTimeCaptureISO":"2025-11-07T09:12:01.208Z"},"hostname":"UA01-SRV01","synced":true,"syncAttempts":0,"lastSyncAttempt":null,"createdAt":"2026-03-10T13:43:16.174Z","_id":"0fGsHB59B4WIulAd","syncedAt":"2026-03-10T13:43:16.275Z"}
{"timestamp":"2026-03-10T13:31:00.520Z","CameraFeedbackMessage":{"targetSystem":0,"camIdx":0,"imgIdx":77,"lat":612436239,"lng":88639239,"altMsl":797.6399536132812,"altRel":-113.47000122070312,"roll":-0.5799999833106995,"pitch":-2.690000057220459,"yaw":101.18999481201172,"focLen":0,"flags":0,"completedCaptures":0},"GimbalOrientation":{"timeBootMs":3545264,"roll":0.03147130087018013,"pitch":-66.4920425415039,"yaw":-97.723388671875,"yawAbsolute":3.9291110038757324},"SystemTime":{"seq":384,"total":3759,"missionState":3,"missionMode":1,"missionId":0,"fenceId":0,"rallyPointsId":0,"msg_name":"MISSION_CURRENT","MISSION_CURRENT":{"seq":384,"total":3759,"missionState":3,"missionMode":1,"missionId":0,"fenceId":0,"rallyPointsId":0}},"Mastdata":null,"Custom":{"dateTimeCaptureISO":"2025-11-07T09:02:10.208Z"},"hostname":"UA01-SRV01","synced":true,"syncAttempts":0,"lastSyncAttempt":null,"createdAt":"2026-03-10T13:31:00.520Z","_id":"1EOupJrJA3aCMdHF","syncedAt":"2026-03-10T13:31:00.621Z"}
{"timestamp":"2026-03-10T14:00:25.228Z","CameraFeedbackMessage":{"targetSystem":0,"camIdx":0,"imgIdx":309,"lat":612178001,"lng":89176243,"altMsl":837.6399536132812,"altRel":-73.47000122070312,"roll":0.25,"pitch":-0.3499999940395355,"yaw":118.16999816894531,"focLen":0,"flags":0,"completedCaptures":0},"GimbalOrientation":{"timeBootMs":1632869,"roll":-0.010421831160783768,"pitch":-43.38802719116211,"yaw":-155.599365234375,"yawAbsolute":-36.62876892089844},"SystemTime":{"seq":1722,"total":3759,"missionState":3,"missionMode":1,"missionId":0,"fenceId":0,"rallyPointsId":0,"msg_name":"MISSION_CURRENT","MISSION_CURRENT":{"seq":1722,"total":3759,"missionState":3,"missionMode":1,"missionId":0,"fenceId":0,"rallyPointsId":0}},"Mastdata":null,"Custom":{"dateTimeCaptureISO":"2025-11-07T09:25:50.208Z"},"hostname":"UA01-SRV01","synced":true,"syncAttempts":0,"lastSyncAttempt":null,"createdAt":"2026-03-10T14:00:25.228Z","_id":"1jvMimRICl1gznrg","syncedAt":"2026-03-10T14:00:25.289Z"}
{"timestamp":"2026-03-10T13:50:10.300Z","CameraFeedbackMessage":{"targetSystem":0,"camIdx":0,"imgIdx":224,"lat":612288296,"lng":88997961,"altMsl":839.1900024414062,"altRel":-71.91999816894531,"roll":2.5199999809265137,"pitch":-1.3399999141693115,"yaw":151.8699951171875,"focLen":0,"flags":0,"completedCaptures":0},"GimbalOrientation":{"timeBootMs":216518,"roll":-0.015908624976873398,"pitch":-66.32388305664062,"yaw":-98.031005859375,"yawAbsolute":53.076934814453125},"SystemTime":{"seq":1230,"total":3759,"missionState":3,"missionMode":1,"missionId":0,"fenceId":0,"rallyPointsId":0,"msg_name":"MISSION_CURRENT","MISSION_CURRENT":{"seq":1230,"total":3759,"missionState":3,"missionMode":1,"missionId":0,"fenceId":0,"rallyPointsId":0}},"Mastdata":null,"Custom":{"dateTimeCaptureISO":"2025-11-07T09:17:36.208Z"},"hostname":"UA01-SRV01","synced":true,"syncAttempts":0,"lastSyncAttempt":null,"createdAt":"2026-03-10T13:50:10.300Z","_id":"26yudWK82Mnq0zGV","syncedAt":"2026-03-10T13:50:10.383Z"}
{"timestamp":"2026-03-10T13:35:12.335Z","CameraFeedbackMessage":{"targetSystem":0,"camIdx":0,"imgIdx":105,"lat":612431359,"lng":88760631,"altMsl":830.7999877929688,"altRel":-80.30999755859375,"roll":-1.2699999809265137,"pitch":-2.259999990463257,"yaw":53.439998626708984,"focLen":0,"flags":0,"completedCaptures":0},"GimbalOrientation":{"timeBootMs":3086052,"roll":-0.006849869154393673,"pitch":-47.93973159790039,"yaw":-156.434326171875,"yawAbsolute":-102.25428009033203},"SystemTime":{"seq":533,"total":3759,"missionState":3,"missionMode":1,"missionId":0,"fenceId":0,"rallyPointsId":0,"msg_name":"MISSION_CURRENT","MISSION_CURRENT":{"seq":533,"total":3759,"missionState":3,"missionMode":1,"missionId":0,"fenceId":0,"rallyPointsId":0}},"Mastdata":null,"Custom":{"dateTimeCaptureISO":"2025-11-07T09:05:31.708Z"},"hostname":"UA01-SRV01","synced":true,"syncAttempts":0,"lastSyncAttempt":null,"createdAt":"2026-03-10T13:35:12.335Z","_id":"28zvid7u1uPBTpH3","syncedAt":"2026-03-10T13:35:12.431Z"}
{"timestamp":"2026-03-10T14:02:05.978Z","CameraFeedbackMessage":{"targetSystem":0,"camIdx":0,"imgIdx":321,"lat":612162111,"lng":89235774,"altMsl":846.1199951171875,"altRel":-64.98999786376953,"roll":-0.08999999612569809,"pitch":-0.41999998688697815,"yaw":119.0999984741211,"focLen":0,"flags":0,"completedCaptures":0},"GimbalOrientation":{"timeBootMs":2165843,"roll":-0.018927831202745438,"pitch":-43.17626190185547,"yaw":-156.390380859375,"yawAbsolute":-36.72877502441406},"SystemTime":{"seq":1778,"total":3759,"missionState":3,"missionMode":1,"missionId":0,"fenceId":0,"rallyPointsId":0,"msg_name":"MISSION_CURRENT","MISSION_CURRENT":{"seq":1778,"total":3759,"missionState":3,"missionMode":1,"missionId":0,"fenceId":0,"rallyPointsId":0}},"Mastdata":null,"Custom":{"dateTimeCaptureISO":"2025-11-07T09:27:10.213Z"},"hostname":"UA01-SRV01","synced":true,"syncAttempts":0,"lastSyncAttempt":null,"createdAt":"2026-03-10T14:02:05.978Z","_id":"2BcfBeeoyH1ddrGc","syncedAt":"2026-03-10T14:02:06.092Z"}
{"timestamp":"2026-03-10T13:46:16.584Z","CameraFeedbackMessage":{"targetSystem":0,"camIdx":0,"imgIdx":190,"lat":612328362,"lng":88933374,"altMsl":795.9099731445312,"altRel":-115.19999694824219,"roll":-0.029999999329447746,"pitch":-0.8700000047683716,"yaw":142.6699981689453,"focLen":0,"flags":0,"completedCaptures":0},"GimbalOrientation":{"timeBootMs":2655500,"roll":-0.01265314407646656,"pitch":-40.33391571044922,"yaw":-157.093505859375,"yawAbsolute":-12.998827934265137},"SystemTime":{"seq":1026,"total":3759,"missionState":3,"missionMode":1,"missionId":0,"fenceId":0,"rallyPointsId":0,"msg_name":"MISSION_CURRENT","MISSION_CURRENT":{"seq":1026,"total":3759,"missionState":3,"missionMode":1,"missionId":0,"fenceId":0,"rallyPointsId":0}},"Mastdata":null,"Custom":{"dateTimeCaptureISO":"2025-11-07T09:14:26.208Z"},"hostname":"UA01-SRV01","synced":true,"syncAttempts":0,"lastSyncAttempt":null,"createdAt":"2026-03-10T13:46:16.584Z","_id":"2JPQzPM04mhv1kwt","syncedAt":"2026-03-10T13:46:16.644Z"}
{"timestamp":"2026-03-10T13:58:46.238Z","CameraFeedbackMessage":{"targetSystem":0,"camIdx":0,"imgIdx":296,"lat":612190593,"lng":89129386,"altMsl":838.0199584960938,"altRel":-73.08999633789062,"roll":-0.08999999612569809,"pitch":-0.7599999904632568,"yaw":118.64999389648438,"focLen":0,"flags":0,"completedCaptures":0},"GimbalOrientation":{"timeBootMs":1201080,"roll":0.026022644713521004,"pitch":-66.89344024658203,"yaw":-100.360107421875,"yawAbsolute":17.880477905273438},"SystemTime":{"seq":1650,"total":3759,"missionState":3,"missionMode":1,"missionId":0,"fenceId":0,"rallyPointsId":0,"msg_name":"MISSION_CURRENT","MISSION_CURRENT":{"seq":1650,"total":3759,"missionState":3,"missionMode":1,"missionId":0,"fenceId":0,"rallyPointsId":0}},"Mastdata":null,"Custom":{"dateTimeCaptureISO":"2025-11-07T09:24:31.208Z"},"hostname":"UA01-SRV01","synced":true,"syncAttempts":0,"lastSyncAttempt":null,"createdAt":"2026-03-10T13:58:46.238Z","_id":"2fYNorWixmjjcPJ4","syncedAt":"2026-03-10T13:58:46.300Z"}
{"timestamp":"2026-03-10T13:43:43.139Z","CameraFeedbackMessage":{"targetSystem":0,"camIdx":0,"imgIdx":167,"lat":612354878,"lng":88890567,"altMsl":796.1099853515625,"altRel":-115,"roll":0.19999998807907104,"pitch":-1.7699999809265137,"yaw":142.13999938964844,"focLen":0,"flags":0,"completedCaptures":0},"GimbalOrientation":{"timeBootMs":3376019,"roll":0.010898830369114876,"pitch":-63.589073181152344,"yaw":-99.107666015625,"yawAbsolute":43.25704574584961},"SystemTime":{"seq":888,"total":3759,"missionState":3,"missionMode":1,"missionId":0,"fenceId":0,"rallyPointsId":0,"msg_name":"MISSION_CURRENT","MISSION_CURRENT":{"seq":888,"total":3759,"missionState":3,"missionMode":1,"missionId":0,"fenceId":0,"rallyPointsId":0}},"Mastdata":null,"Custom":{"dateTimeCaptureISO":"2025-11-07T09:12:22.708Z"},"hostname":"UA01-SRV01","synced":true,"syncAttempts":0,"lastSyncAttempt":null,"createdAt":"2026-03-10T13:43:43.139Z","_id":"2kZLYCsxVBSzr216","syncedAt":"2026-03-10T13:43:43.224Z"}
{"timestamp":"2026-03-10T13:48:11.139Z","CameraFeedbackMessage":{"targetSystem":0,"camIdx":0,"imgIdx":206,"lat":612309187,"lng":88964326,"altMsl":812.7099609375,"altRel":-98.4000015258789,"roll":0.41999998688697815,"pitch":-1.6999999284744263,"yaw":141.95999145507812,"focLen":0,"flags":0,"completedCaptures":0},"GimbalOrientation":{"timeBootMs":1198016,"roll":0.022797439247369766,"pitch":-66.23736572265625,"yaw":-99.063720703125,"yawAbsolute":42.6059684753418},"SystemTime":{"seq":1122,"total":3759,"missionState":3,"missionMode":1,"missionId":0,"fenceId":0,"rallyPointsId":0,"msg_name":"MISSION_CURRENT","MISSION_CURRENT":{"seq":1122,"total":3759,"missionState":3,"missionMode":1,"missionId":0,"fenceId":0,"rallyPointsId":0}},"Mastdata":null,"Custom":{"dateTimeCaptureISO":"2025-11-07T09:15:59.708Z"},"hostname":"UA01-SRV01","synced":true,"syncAttempts":0,"lastSyncAttempt":null,"createdAt":"2026-03-10T13:48:11.139Z","_id":"32LmEv08DPa9hDYW","syncedAt":"2026-03-10T13:48:11.225Z"}
{"timestamp":"2026-03-10T13:41:44.286Z","CameraFeedbackMessage":{"targetSystem":0,"camIdx":0,"imgIdx":150,"lat":612374203,"lng":88859287,"altMsl":797.5599975585938,"altRel":-113.54999542236328,"roll":0.699999988079071,"pitch":-0.9099999666213989,"yaw":141.89999389648438,"focLen":0,"flags":0,"completedCaptures":0},"GimbalOrientation":{"timeBootMs":367760,"roll":0.004799694288522005,"pitch":-46.315120697021484,"yaw":-28.817138671875,"yawAbsolute":112.68971252441406},"SystemTime":{"seq":786,"total":3759,"missionState":3,"missionMode":1,"missionId":0,"fenceId":0,"rallyPointsId":0,"msg_name":"MISSION_CURRENT","MISSION_CURRENT":{"seq":786,"total":3759,"missionState":3,"missionMode":1,"missionId":0,"fenceId":0,"rallyPointsId":0}},"Mastdata":null,"Custom":{"dateTimeCaptureISO":"2025-11-07T09:10:48.208Z"},"hostname":"UA01-SRV01","synced":true,"syncAttempts":0,"lastSyncAttempt":null,"createdAt":"2026-03-10T13:41:44.286Z","_id":"3BUdAQpZlLmNCgmV","syncedAt":"2026-03-10T13:41:44.341Z"}
{"timestamp":"2026-03-10T13:59:52.188Z","CameraFeedbackMessage":{"targetSystem":0,"camIdx":0,"imgIdx":305,"lat":612181887,"lng":89161645,"altMsl":834.5299682617188,"altRel":-76.58000183105469,"roll":-0.1899999976158142,"pitch":-2.4099998474121094,"yaw":119.3699951171875,"focLen":0,"flags":0,"completedCaptures":0},"GimbalOrientation":{"timeBootMs":1556760,"roll":0.08516953140497208,"pitch":-63.52682876586914,"yaw":-97.503662109375,"yawAbsolute":22.001108169555664},"SystemTime":{"seq":1700,"total":3759,"missionState":3,"missionMode":1,"missionId":0,"fenceId":0,"rallyPointsId":0,"msg_name":"MISSION_CURRENT","MISSION_CURRENT":{"seq":1700,"total":3759,"missionState":3,"missionMode":1,"missionId":0,"fenceId":0,"rallyPointsId":0}},"Mastdata":null,"Custom":{"dateTimeCaptureISO":"2025-11-07T09:25:24.211Z"},"hostname":"UA01-SRV01","synced":true,"syncAttempts":0,"lastSyncAttempt":null,"createdAt":"2026-03-10T13:59:52.189Z","_id":"3FLuPJipz7IleQui","syncedAt":"2026-03-10T13:59:52.257Z"}
{"timestamp":"2026-03-10T13:52:14.081Z","CameraFeedbackMessage":{"targetSystem":0,"camIdx":0,"imgIdx":241,"lat":612259945,"lng":89017425,"altMsl":812.6599731445312,"altRel":-98.44999694824219,"roll":0.25999999046325684,"pitch":-1.3299999237060547,"yaw":161.97999572753906,"focLen":0,"flags":0,"completedCaptures":0},"GimbalOrientation":{"timeBootMs":4275193,"roll":-0.040099285542964935,"pitch":-41.07073211669922,"yaw":-157.005615234375,"yawAbsolute":6.144481658935547},"SystemTime":{"seq":1328,"total":3759,"missionState":3,"missionMode":1,"missionId":0,"fenceId":0,"rallyPointsId":0,"msg_name":"MISSION_CURRENT","MISSION_CURRENT":{"seq":1328,"total":3759,"missionState":3,"missionMode":1,"missionId":0,"fenceId":0,"rallyPointsId":0}},"Mastdata":null,"Custom":{"dateTimeCaptureISO":"2025-11-07T09:19:17.211Z"},"hostname":"UA01-SRV01","synced":true,"syncAttempts":0,"lastSyncAttempt":null,"createdAt":"2026-03-10T13:52:14.081Z","_id":"3OXdd9Ss4Zx5Akw5","syncedAt":"2026-03-10T13:52:14.142Z"}
{"timestamp":"2026-03-10T13:53:19.488Z","CameraFeedbackMessage":{"targetSystem":0,"camIdx":0,"imgIdx":250,"lat":612246846,"lng":89026401,"altMsl":813.75,"altRel":-97.36000061035156,"roll":0.07000000029802322,"pitch":-1.7699999809265137,"yaw":161.44000244140625,"focLen":0,"flags":0,"completedCaptures":0},"GimbalOrientation":{"timeBootMs":115891,"roll":-0.0009666502010077238,"pitch":-41.04759216308594,"yaw":-156.192626953125,"yawAbsolute":6.426311016082764},"SystemTime":{"seq":1382,"total":3759,"missionState":3,"missionMode":1,"missionId":0,"fenceId":0,"rallyPointsId":0,"msg_name":"MISSION_CURRENT","MISSION_CURRENT":{"seq":1382,"total":3759,"missionState":3,"missionMode":1,"missionId":0,"fenceId":0,"rallyPointsId":0}},"Mastdata":null,"Custom":{"dateTimeCaptureISO":"2025-11-07T09:20:09.213Z"},"hostname":"UA01-SRV01","synced":true,"syncAttempts":0,"lastSyncAttempt":null,"createdAt":"2026-03-10T13:53:19.488Z","_id":"3PHHqIsutbFUxzy8","syncedAt":"2026-03-10T13:53:19.587Z"}
{"timestamp":"2026-03-10T13:58:18.145Z","CameraFeedbackMessage":{"targetSystem":0,"camIdx":0,"imgIdx":292,"lat":612193618,"lng":89117911,"altMsl":831.6499633789062,"altRel":-79.45999908447266,"roll":-0.1599999964237213,"pitch":-1.46999990940094,"yaw":118.68000030517578,"focLen":0,"flags":0,"completedCaptures":0},"GimbalOrientation":{"timeBootMs":1768990,"roll":0.0313967801630497,"pitch":-43.80860137939453,"yaw":-27.564697265625,"yawAbsolute":90.2991714477539},"SystemTime":{"seq":1628,"total":3759,"missionState":3,"missionMode":1,"missionId":0,"fenceId":0,"rallyPointsId":0,"msg_name":"MISSION_CURRENT","MISSION_CURRENT":{"seq":1628,"total":3759,"missionState":3,"missionMode":1,"missionId":0,"fenceId":0,"rallyPointsId":0}},"Mastdata":null,"Custom":{"dateTimeCaptureISO":"2025-11-07T09:24:08.711Z"},"hostname":"UA01-SRV01","synced":true,"syncAttempts":0,"lastSyncAttempt":null,"createdAt":"2026-03-10T13:58:18.145Z","_id":"3i1MfMjdQmVZXHfl","syncedAt":"2026-03-10T13:58:18.253Z"}
{"timestamp":"2026-03-10T14:03:48.463Z","CameraFeedbackMessage":{"targetSystem":0,"camIdx":0,"imgIdx":326,"lat":612130784,"lng":89243956,"altMsl":828.97998046875,"altRel":-82.12999725341797,"roll":-0.699999988079071,"pitch":-4.569999694824219,"yaw":341.8399963378906,"focLen":0,"flags":0,"completedCaptures":0},"GimbalOrientation":{"timeBootMs":3088557,"roll":-0.09981419891119003,"pitch":-66.04292297363281,"yaw":-98.800048828125,"yawAbsolute":-117.46762084960938},"SystemTime":{"seq":1803,"total":3759,"missionState":3,"missionMode":1,"missionId":0,"fenceId":0,"rallyPointsId":0,"msg_name":"MISSION_CURRENT","MISSION_CURRENT":{"seq":1803,"total":3759,"missionState":3,"missionMode":1,"missionId":0,"fenceId":0,"rallyPointsId":0}},"Mastdata":null,"Custom":{"dateTimeCaptureISO":"2025-11-07T09:28:32.211Z"},"hostname":"UA01-SRV01","synced":true,"syncAttempts":0,"lastSyncAttempt":null,"createdAt":"2026-03-10T14:03:48.463Z","_id":"3rZDDBP2aoX2NUTw","syncedAt":"2026-03-10T14:03:48.522Z"}
{"timestamp":"2026-03-10T13:26:53.820Z","CameraFeedbackMessage":{"targetSystem":0,"camIdx":0,"imgIdx":56,"lat":612446809,"lng":88553757,"altMsl":846.489990234375,"altRel":-64.6199951171875,"roll":-0.41999998688697815,"pitch":-1.5099999904632568,"yaw":109.89999389648438,"focLen":0,"flags":0,"completedCaptures":0},"GimbalOrientation":{"timeBootMs":1418285,"roll":0.029613928869366646,"pitch":-64.74370574951172,"yaw":-97.349853515625,"yawAbsolute":12.938776969909668},"SystemTime":{"seq":274,"total":3759,"missionState":3,"missionMode":1,"missionId":0,"fenceId":0,"rallyPointsId":0,"msg_name":"MISSION_CURRENT","MISSION_CURRENT":{"seq":274,"total":3759,"missionState":3,"missionMode":1,"missionId":0,"fenceId":0,"rallyPointsId":0}},"Mastdata":null,"Custom":{"dateTimeCaptureISO":"2025-11-07T08:58:58.711Z"},"hostname":"UA01-SRV01","synced":true,"syncAttempts":0,"lastSyncAttempt":null,"createdAt":"2026-03-10T13:26:53.820Z","_id":"4GOqAuHo7p0bMbG9","syncedAt":"2026-03-10T13:26:53.880Z"}
{"timestamp":"2026-03-10T13:59:18.645Z","CameraFeedbackMessage":{"targetSystem":0,"camIdx":0,"imgIdx":301,"lat":612187194,"lng":89142147,"altMsl":840.0599975585938,"altRel":-71.04999542236328,"roll":0.12999999523162842,"pitch":-0.7799999713897705,"yaw":120.29999542236328,"focLen":0,"flags":0,"completedCaptures":0},"GimbalOrientation":{"timeBootMs":1293973,"roll":-0.038777805864810944,"pitch":-44.72045135498047,"yaw":-156.632080078125,"yawAbsolute":-35.22248840332031},"SystemTime":{"seq":1680,"total":3759,"missionState":3,"missionMode":1,"missionId":0,"fenceId":0,"rallyPointsId":0,"msg_name":"MISSION_CURRENT","MISSION_CURRENT":{"seq":1680,"total":3759,"missionState":3,"missionMode":1,"missionId":0,"fenceId":0,"rallyPointsId":0}},"Mastdata":null,"Custom":{"dateTimeCaptureISO":"2025-11-07T09:24:57.211Z"},"hostname":"UA01-SRV01","synced":true,"syncAttempts":0,"lastSyncAttempt":null,"createdAt":"2026-03-10T13:59:18.645Z","_id":"4OfZYFIyuDm4cM5q","syncedAt":"2026-03-10T13:59:18.724Z"}
{"timestamp":"2026-03-10T13:29:53.208Z","CameraFeedbackMessage":{"targetSystem":0,"camIdx":0,"imgIdx":70,"lat":612440638,"lng":88593494,"altMsl":839.1399536132812,"altRel":-71.97000122070312,"roll":-1.409999966621399,"pitch":-0.85999995470047,"yaw":101.25999450683594,"focLen":0,"flags":0,"completedCaptures":0},"GimbalOrientation":{"timeBootMs":3358552,"roll":0.03579101711511612,"pitch":-45.430694580078125,"yaw":-25.762939453125,"yawAbsolute":72.59049224853516},"SystemTime":{"seq":352,"total":3759,"missionState":3,"missionMode":1,"missionId":0,"fenceId":0,"rallyPointsId":0,"msg_name":"MISSION_CURRENT","MISSION_CURRENT":{"seq":352,"total":3759,"missionState":3,"missionMode":1,"missionId":0,"fenceId":0,"rallyPointsId":0}},"Mastdata":null,"Custom":{"dateTimeCaptureISO":"2025-11-07T09:01:17.708Z"},"hostname":"UA01-SRV01","synced":true,"syncAttempts":0,"lastSyncAttempt":null,"createdAt":"2026-03-10T13:29:53.208Z","_id":"4v7JtH7N5eHfOvWN","syncedAt":"2026-03-10T13:29:53.299Z"}
{"timestamp":"2026-03-10T13:33:20.060Z","CameraFeedbackMessage":{"targetSystem":0,"camIdx":0,"imgIdx":92,"lat":612421658,"lng":88717933,"altMsl":784.72998046875,"altRel":-126.37999725341797,"roll":-0.029999999329447746,"pitch":-0.5799999833106995,"yaw":122.07999420166016,"focLen":0,"flags":0,"completedCaptures":0},"GimbalOrientation":{"timeBootMs":383326,"roll":-0.019719701260328293,"pitch":-65.06733703613281,"yaw":-99.722900390625,"yawAbsolute":22.493270874023438},"SystemTime":{"seq":464,"total":3759,"missionState":3,"missionMode":1,"missionId":0,"fenceId":0,"rallyPointsId":0,"msg_name":"MISSION_CURRENT","MISSION_CURRENT":{"seq":464,"total":3759,"missionState":3,"missionMode":1,"missionId":0,"fenceId":0,"rallyPointsId":0}},"Mastdata":null,"Custom":{"dateTimeCaptureISO":"2025-11-07T09:03:59.218Z"},"hostname":"UA01-SRV01","synced":true,"syncAttempts":0,"lastSyncAttempt":null,"createdAt":"2026-03-10T13:33:20.060Z","_id":"4xYrpm3Sa3SCI8Fp","syncedAt":"2026-03-10T13:33:20.120Z"}
{"timestamp":"2026-03-10T13:58:32.919Z","CameraFeedbackMessage":{"targetSystem":0,"camIdx":0,"imgIdx":294,"lat":612191884,"lng":89124481,"altMsl":837.260009765625,"altRel":-73.8499984741211,"roll":-0.2199999988079071,"pitch":-0.6599999666213989,"yaw":118.73999786376953,"focLen":0,"flags":0,"completedCaptures":0},"GimbalOrientation":{"timeBootMs":3700568,"roll":-0.02685106359422207,"pitch":-48.34481430053711,"yaw":-28.685302734375,"yawAbsolute":89.68954467773438},"SystemTime":{"seq":1638,"total":3759,"missionState":3,"missionMode":1,"missionId":0,"fenceId":0,"rallyPointsId":0,"msg_name":"MISSION_CURRENT","MISSION_CURRENT":{"seq":1638,"total":3759,"missionState":3,"missionMode":1,"missionId":0,"fenceId":0,"rallyPointsId":0}},"Mastdata":null,"Custom":{"dateTimeCaptureISO":"2025-11-07T09:24:20.208Z"},"hostname":"UA01-SRV01","synced":true,"syncAttempts":0,"lastSyncAttempt":null,"createdAt":"2026-03-10T13:58:32.919Z","_id":"5IYI5krMeojn9qJ3","syncedAt":"2026-03-10T13:58:33.014Z"}
{"timestamp":"2026-03-10T13:57:28.635Z","CameraFeedbackMessage":{"targetSystem":0,"camIdx":0,"imgIdx":285,"lat":612201839,"lng":89096926,"altMsl":820.8800048828125,"altRel":-90.22999572753906,"roll":0.41999998688697815,"pitch":-1.2699999809265137,"yaw":138.7899932861328,"focLen":0,"flags":0,"completedCaptures":0},"GimbalOrientation":{"timeBootMs":3683603,"roll":-0.01197889819741249,"pitch":-43.05624008178711,"yaw":-28.355712890625,"yawAbsolute":109.84351348876953},"SystemTime":{"seq":1588,"total":3759,"missionState":3,"missionMode":1,"missionId":0,"fenceId":0,"rallyPointsId":0,"msg_name":"MISSION_CURRENT","MISSION_CURRENT":{"seq":1588,"total":3759,"missionState":3,"missionMode":1,"missionId":0,"fenceId":0,"rallyPointsId":0}},"Mastdata":null,"Custom":{"dateTimeCaptureISO":"2025-11-07T09:23:29.208Z"},"hostname":"UA01-SRV01","synced":true,"syncAttempts":0,"lastSyncAttempt":null,"createdAt":"2026-03-10T13:57:28.635Z","_id":"5hghDzXUxzetocGa","syncedAt":"2026-03-10T13:57:28.694Z"}
{"timestamp":"2026-03-10T13:50:22.846Z","CameraFeedbackMessage":{"targetSystem":0,"camIdx":0,"imgIdx":226,"lat":612285973,"lng":88999620,"altMsl":835.739990234375,"altRel":-75.3699951171875,"roll":1.399999976158142,"pitch":-1.059999942779541,"yaw":161.34999084472656,"focLen":0,"flags":0,"completedCaptures":0},"GimbalOrientation":{"timeBootMs":1910726,"roll":0.00833478756248951,"pitch":-41.81460952758789,"yaw":-156.588134765625,"yawAbsolute":6.139134883880615},"SystemTime":{"seq":1242,"total":3759,"missionState":3,"missionMode":1,"missionId":0,"fenceId":0,"rallyPointsId":0,"msg_name":"MISSION_CURRENT","MISSION_CURRENT":{"seq":1242,"total":3759,"missionState":3,"missionMode":1,"missionId":0,"fenceId":0,"rallyPointsId":0}},"Mastdata":null,"Custom":{"dateTimeCaptureISO":"2025-11-07T09:17:46.211Z"},"hostname":"UA01-SRV01","synced":true,"syncAttempts":0,"lastSyncAttempt":null,"createdAt":"2026-03-10T13:50:22.846Z","_id":"5ilOgqD0fpFpQro3","syncedAt":"2026-03-10T13:50:22.906Z"}
{"timestamp":"2026-03-10T13:46:03.588Z","CameraFeedbackMessage":{"targetSystem":0,"camIdx":0,"imgIdx":188,"lat":612330493,"lng":88929983,"altMsl":796.97998046875,"altRel":-114.12999725341797,"roll":0.5999999642372131,"pitch":-2,"yaw":142.47999572753906,"focLen":0,"flags":0,"completedCaptures":0},"GimbalOrientation":{"timeBootMs":892936,"roll":-0.016478657722473145,"pitch":-64.5760726928711,"yaw":-98.690185546875,"yawAbsolute":43.4238395690918},"SystemTime":{"seq":1014,"total":3759,"missionState":3,"missionMode":1,"missionId":0,"fenceId":0,"rallyPointsId":0,"msg_name":"MISSION_CURRENT","MISSION_CURRENT":{"seq":1014,"total":3759,"missionState":3,"missionMode":1,"missionId":0,"fenceId":0,"rallyPointsId":0}},"Mastdata":null,"Custom":{"dateTimeCaptureISO":"2025-11-07T09:14:15.716Z"},"hostname":"UA01-SRV01","synced":true,"syncAttempts":0,"lastSyncAttempt":null,"createdAt":"2026-03-10T13:46:03.589Z","_id":"5mEOdWhdD4dP6dZB","syncedAt":"2026-03-10T13:46:03.688Z"}
{"timestamp":"2026-03-10T13:47:27.247Z","CameraFeedbackMessage":{"targetSystem":0,"camIdx":0,"imgIdx":200,"lat":612316379,"lng":88952719,"altMsl":802.9400024414062,"altRel":-108.16999816894531,"roll":0.20999999344348907,"pitch":-2.1399998664855957,"yaw":142.22000122070312,"focLen":0,"flags":0,"completedCaptures":0},"GimbalOrientation":{"timeBootMs":3790344,"roll":-0.0028778251726180315,"pitch":-63.99272537231445,"yaw":-98.448486328125,"yawAbsolute":43.57210922241211},"SystemTime":{"seq":1086,"total":3759,"missionState":3,"missionMode":1,"missionId":0,"fenceId":0,"rallyPointsId":0,"msg_name":"MISSION_CURRENT","MISSION_CURRENT":{"seq":1086,"total":3759,"missionState":3,"missionMode":1,"missionId":0,"fenceId":0,"rallyPointsId":0}},"Mastdata":null,"Custom":{"dateTimeCaptureISO":"2025-11-07T09:15:24.213Z"},"hostname":"UA01-SRV01","synced":true,"syncAttempts":0,"lastSyncAttempt":null,"createdAt":"2026-03-10T13:47:27.247Z","_id":"5zW74uegsjZgLOV8","syncedAt":"2026-03-10T13:47:27.339Z"}
{"timestamp":"2026-03-10T13:39:12.414Z","CameraFeedbackMessage":{"targetSystem":0,"camIdx":0,"imgIdx":129,"lat":612394517,"lng":88806791,"altMsl":795.9400024414062,"altRel":-115.16999816894531,"roll":0.28999999165534973,"pitch":-1.209999918937683,"yaw":122.56999969482422,"focLen":0,"flags":0,"completedCaptures":0},"GimbalOrientation":{"timeBootMs":1289807,"roll":0.002407550346106291,"pitch":-44.49887466430664,"yaw":-28.685302734375,"yawAbsolute":93.41746520996094},"SystemTime":{"seq":664,"total":3759,"missionState":3,"missionMode":1,"missionId":0,"fenceId":0,"rallyPointsId":0,"msg_name":"MISSION_CURRENT","MISSION_CURRENT":{"seq":664,"total":3759,"missionState":3,"missionMode":1,"missionId":0,"fenceId":0,"rallyPointsId":0}},"Mastdata":null,"Custom":{"dateTimeCaptureISO":"2025-11-07T09:08:45.708Z"},"hostname":"UA01-SRV01","synced":true,"syncAttempts":0,"lastSyncAttempt":null,"createdAt":"2026-03-10T13:39:12.414Z","_id":"69IIsF1tCyh78ShA","syncedAt":"2026-03-10T13:39:12.509Z"}
{"timestamp":"2026-03-10T13:52:52.772Z","CameraFeedbackMessage":{"targetSystem":0,"camIdx":0,"imgIdx":246,"lat":612251952,"lng":89022914,"altMsl":814.3999633789062,"altRel":-96.70999908447266,"roll":0.3100000023841858,"pitch":-1.5999999046325684,"yaw":161.50999450683594,"focLen":0,"flags":0,"completedCaptures":0},"GimbalOrientation":{"timeBootMs":801784,"roll":-0.003150766948238015,"pitch":-45.827674865722656,"yaw":-28.311767578125,"yawAbsolute":132.6581573486328},"SystemTime":{"seq":1358,"total":3759,"missionState":3,"missionMode":1,"missionId":0,"fenceId":0,"rallyPointsId":0,"msg_name":"MISSION_CURRENT","MISSION_CURRENT":{"seq":1358,"total":3759,"missionState":3,"missionMode":1,"missionId":0,"fenceId":0,"rallyPointsId":0}},"Mastdata":null,"Custom":{"dateTimeCaptureISO":"2025-11-07T09:19:47.208Z"},"hostname":"UA01-SRV01","synced":true,"syncAttempts":0,"lastSyncAttempt":null,"createdAt":"2026-03-10T13:52:52.773Z","_id":"6XVvrkEDZ4t5aBWh","syncedAt":"2026-03-10T13:52:52.884Z"}
{"timestamp":"2026-03-10T13:58:27.565Z","CameraFeedbackMessage":{"targetSystem":0,"camIdx":0,"imgIdx":293,"lat":612192331,"lng":89122795,"altMsl":835.7899780273438,"altRel":-75.31999969482422,"roll":-0.11999999731779099,"pitch":-0.8100000023841858,"yaw":118.7199935913086,"focLen":0,"flags":0,"completedCaptures":0},"GimbalOrientation":{"timeBootMs":3006092,"roll":-0.03847610205411911,"pitch":-66.00142669677734,"yaw":-100.843505859375,"yawAbsolute":17.95700454711914},"SystemTime":{"seq":1632,"total":3759,"missionState":3,"missionMode":1,"missionId":0,"fenceId":0,"rallyPointsId":0,"msg_name":"MISSION_CURRENT","MISSION_CURRENT":{"seq":1632,"total":3759,"missionState":3,"missionMode":1,"missionId":0,"fenceId":0,"rallyPointsId":0}},"Mastdata":null,"Custom":{"dateTimeCaptureISO":"2025-11-07T09:24:16.211Z"},"hostname":"UA01-SRV01","synced":true,"syncAttempts":0,"lastSyncAttempt":null,"createdAt":"2026-03-10T13:58:27.565Z","_id":"6atpnoxAS8cFRPBl","syncedAt":"2026-03-10T13:58:27.622Z"}
{"timestamp":"2026-03-10T13:49:51.494Z","CameraFeedbackMessage":{"targetSystem":0,"camIdx":0,"imgIdx":221,"lat":612291593,"lng":88992738,"altMsl":841.9599609375,"altRel":-69.1500015258789,"roll":1.0199999809265137,"pitch":-1.159999966621399,"yaw":142.39999389648438,"focLen":0,"flags":0,"completedCaptures":0},"GimbalOrientation":{"timeBootMs":1953188,"roll":0.0026029259897768497,"pitch":-67.58717346191406,"yaw":-98.448486328125,"yawAbsolute":43.84566879272461},"SystemTime":{"seq":1212,"total":3759,"missionState":3,"missionMode":1,"missionId":0,"fenceId":0,"rallyPointsId":0,"msg_name":"MISSION_CURRENT","MISSION_CURRENT":{"seq":1212,"total":3759,"missionState":3,"missionMode":1,"missionId":0,"fenceId":0,"rallyPointsId":0}},"Mastdata":null,"Custom":{"dateTimeCaptureISO":"2025-11-07T09:17:21.213Z"},"hostname":"UA01-SRV01","synced":true,"syncAttempts":0,"lastSyncAttempt":null,"createdAt":"2026-03-10T13:49:51.494Z","_id":"6do32KOVlC0WZ8Qx","syncedAt":"2026-03-10T13:49:51.604Z"}
{"timestamp":"2026-03-10T13:39:04.810Z","CameraFeedbackMessage":{"targetSystem":0,"camIdx":0,"imgIdx":128,"lat":612395470,"lng":88803648,"altMsl":794.6699829101562,"altRel":-116.43999481201172,"roll":-0.08999999612569809,"pitch":-1.2400000095367432,"yaw":121.95999908447266,"focLen":0,"flags":0,"completedCaptures":0},"GimbalOrientation":{"timeBootMs":290266,"roll":-0.034024059772491455,"pitch":-64.53006744384766,"yaw":-98.734130859375,"yawAbsolute":23.433645248413086},"SystemTime":{"seq":658,"total":3759,"missionState":3,"missionMode":1,"missionId":0,"fenceId":0,"rallyPointsId":0,"msg_name":"MISSION_CURRENT","MISSION_CURRENT":{"seq":658,"total":3759,"missionState":3,"missionMode":1,"missionId":0,"fenceId":0,"rallyPointsId":0}},"Mastdata":null,"Custom":{"dateTimeCaptureISO":"2025-11-07T09:08:39.708Z"},"hostname":"UA01-SRV01","synced":true,"syncAttempts":0,"lastSyncAttempt":null,"createdAt":"2026-03-10T13:39:04.810Z","_id":"71sjYoivsSto98qh","syncedAt":"2026-03-10T13:39:04.925Z"}
{"timestamp":"2026-03-10T13:44:23.191Z","CameraFeedbackMessage":{"targetSystem":0,"camIdx":0,"imgIdx":173,"lat":612347867,"lng":88901964,"altMsl":796.1300048828125,"altRel":-114.97999572753906,"roll":0.32999998331069946,"pitch":-1.409999966621399,"yaw":142.22000122070312,"focLen":0,"flags":0,"completedCaptures":0},"GimbalOrientation":{"timeBootMs":291782,"roll":-0.006745390594005585,"pitch":-65.25436401367188,"yaw":-98.580322265625,"yawAbsolute":43.625648498535156},"SystemTime":{"seq":924,"total":3759,"missionState":3,"missionMode":1,"missionId":0,"fenceId":0,"rallyPointsId":0,"msg_name":"MISSION_CURRENT","MISSION_CURRENT":{"seq":924,"total":3759,"missionState":3,"missionMode":1,"missionId":0,"fenceId":0,"rallyPointsId":0}},"Mastdata":null,"Custom":{"dateTimeCaptureISO":"2025-11-07T09:12:55.708Z"},"hostname":"UA01-SRV01","synced":true,"syncAttempts":0,"lastSyncAttempt":null,"createdAt":"2026-03-10T13:44:23.191Z","_id":"772h7w3JDCjQU3Au","syncedAt":"2026-03-10T13:44:23.288Z"}
{"timestamp":"2026-03-10T13:50:40.994Z","CameraFeedbackMessage":{"targetSystem":0,"camIdx":0,"imgIdx":228,"lat":612282326,"lng":89002108,"altMsl":830.97998046875,"altRel":-80.12999725341797,"roll":0.6399999856948853,"pitch":-1.149999976158142,"yaw":161.83999633789062,"focLen":0,"flags":0,"completedCaptures":0},"GimbalOrientation":{"timeBootMs":123305,"roll":-0.025395845994353294,"pitch":-52.86254119873047,"yaw":-28.597412109375,"yawAbsolute":132.9405517578125},"SystemTime":{"seq":1254,"total":3759,"missionState":3,"missionMode":1,"missionId":0,"fenceId":0,"rallyPointsId":0,"msg_name":"MISSION_CURRENT","MISSION_CURRENT":{"seq":1254,"total":3759,"missionState":3,"missionMode":1,"missionId":0,"fenceId":0,"rallyPointsId":0}},"Mastdata":null,"Custom":{"dateTimeCaptureISO":"2025-11-07T09:18:01.211Z"},"hostname":"UA01-SRV01","synced":true,"syncAttempts":0,"lastSyncAttempt":null,"createdAt":"2026-03-10T13:50:40.994Z","_id":"7NgkMtLkh2jLyWfC","syncedAt":"2026-03-10T13:50:41.081Z"}
{"timestamp":"2026-03-10T13:50:03.717Z","CameraFeedbackMessage":{"targetSystem":0,"camIdx":0,"imgIdx":223,"lat":612289462,"lng":88996152,"altMsl":840.3299560546875,"altRel":-70.77999877929688,"roll":0.3199999928474426,"pitch":-0.6499999761581421,"yaw":141.72000122070312,"focLen":0,"flags":0,"completedCaptures":0},"GimbalOrientation":{"timeBootMs":3630779,"roll":-0.02274457924067974,"pitch":-44.45201873779297,"yaw":-156.038818359375,"yawAbsolute":-13.131912231445312},"SystemTime":{"seq":1224,"total":3759,"missionState":3,"missionMode":1,"missionId":0,"fenceId":0,"rallyPointsId":0,"msg_name":"MISSION_CURRENT","MISSION_CURRENT":{"seq":1224,"total":3759,"missionState":3,"missionMode":1,"missionId":0,"fenceId":0,"rallyPointsId":0}},"Mastdata":null,"Custom":{"dateTimeCaptureISO":"2025-11-07T09:17:30.711Z"},"hostname":"UA01-SRV01","synced":true,"syncAttempts":0,"lastSyncAttempt":null,"createdAt":"2026-03-10T13:50:03.717Z","_id":"7pA7CiOmhO4gToVY","syncedAt":"2026-03-10T13:50:03.825Z"}
{"timestamp":"2026-03-10T13:44:54.834Z","CameraFeedbackMessage":{"targetSystem":0,"camIdx":0,"imgIdx":178,"lat":612342349,"lng":88910869,"altMsl":795.0700073242188,"altRel":-116.04000091552734,"roll":0.7799999713897705,"pitch":-1.46999990940094,"yaw":141.8699951171875,"focLen":0,"flags":0,"completedCaptures":0},"GimbalOrientation":{"timeBootMs":232657,"roll":-0.04181406646966934,"pitch":-42.111915588378906,"yaw":-156.192626953125,"yawAbsolute":-13.220438957214355},"SystemTime":{"seq":954,"total":3759,"missionState":3,"missionMode":1,"missionId":0,"fenceId":0,"rallyPointsId":0,"msg_name":"MISSION_CURRENT","MISSION_CURRENT":{"seq":954,"total":3759,"missionState":3,"missionMode":1,"missionId":0,"fenceId":0,"rallyPointsId":0}},"Mastdata":null,"Custom":{"dateTimeCaptureISO":"2025-11-07T09:13:20.708Z"},"hostname":"UA01-SRV01","synced":true,"syncAttempts":0,"lastSyncAttempt":null,"createdAt":"2026-03-10T13:44:54.834Z","_id":"7yS0FQiH1R3i4PBS","syncedAt":"2026-03-10T13:44:54.927Z"}
{"timestamp":"2026-03-10T14:00:02.952Z","CameraFeedbackMessage":{"targetSystem":0,"camIdx":0,"imgIdx":306,"lat":612180601,"lng":89166453,"altMsl":841.0199584960938,"altRel":-70.08999633789062,"roll":0.03999999910593033,"pitch":3.7899999618530273,"yaw":119.43999481201172,"focLen":0,"flags":0,"completedCaptures":0},"GimbalOrientation":{"timeBootMs":2980579,"roll":0.040645260363817215,"pitch":-50.866851806640625,"yaw":-29.739990234375,"yawAbsolute":89.27838134765625},"SystemTime":{"seq":1706,"total":3759,"missionState":3,"missionMode":1,"missionId":0,"fenceId":0,"rallyPointsId":0,"msg_name":"MISSION_CURRENT","MISSION_CURRENT":{"seq":1706,"total":3759,"missionState":3,"missionMode":1,"missionId":0,"fenceId":0,"rallyPointsId":0}},"Mastdata":null,"Custom":{"dateTimeCaptureISO":"2025-11-07T09:25:32.711Z"},"hostname":"UA01-SRV01","synced":true,"syncAttempts":0,"lastSyncAttempt":null,"createdAt":"2026-03-10T14:00:02.952Z","_id":"87BuMrjXVGhpIIHb","syncedAt":"2026-03-10T14:00:03.009Z"}
{"timestamp":"2026-03-10T13:58:41.237Z","CameraFeedbackMessage":{"targetSystem":0,"camIdx":0,"imgIdx":295,"lat":612191039,"lng":89127683,"altMsl":838.0299682617188,"altRel":-73.08000183105469,"roll":-0.14000000059604645,"pitch":-0.9399999976158142,"yaw":118.8499984741211,"focLen":0,"flags":0,"completedCaptures":0},"GimbalOrientation":{"timeBootMs":523378,"roll":-0.0060432953760027885,"pitch":-45.39878463745117,"yaw":-156.214599609375,"yawAbsolute":-36.78498840332031},"SystemTime":{"seq":1644,"total":3759,"missionState":3,"missionMode":1,"missionId":0,"fenceId":0,"rallyPointsId":0,"msg_name":"MISSION_CURRENT","MISSION_CURRENT":{"seq":1644,"total":3759,"missionState":3,"missionMode":1,"missionId":0,"fenceId":0,"rallyPointsId":0}},"Mastdata":null,"Custom":{"dateTimeCaptureISO":"2025-11-07T09:24:27.208Z"},"hostname":"UA01-SRV01","synced":true,"syncAttempts":0,"lastSyncAttempt":null,"createdAt":"2026-03-10T13:58:41.237Z","_id":"8IXSjgZmSUbzw1Ev","syncedAt":"2026-03-10T13:58:41.314Z"}
{"timestamp":"2026-03-10T13:49:31.770Z","CameraFeedbackMessage":{"targetSystem":0,"camIdx":0,"imgIdx":218,"lat":612295092,"lng":88987123,"altMsl":839.1199951171875,"altRel":-71.98999786376953,"roll":0.6100000143051147,"pitch":-1.0299999713897705,"yaw":142.25,"focLen":0,"flags":0,"completedCaptures":0},"GimbalOrientation":{"timeBootMs":3588147,"roll":0.03770210221409798,"pitch":-65.26280975341797,"yaw":-99.371337890625,"yawAbsolute":42.7323112487793},"SystemTime":{"seq":1194,"total":3759,"missionState":3,"missionMode":1,"missionId":0,"fenceId":0,"rallyPointsId":0,"msg_name":"MISSION_CURRENT","MISSION_CURRENT":{"seq":1194,"total":3759,"missionState":3,"missionMode":1,"missionId":0,"fenceId":0,"rallyPointsId":0}},"Mastdata":null,"Custom":{"dateTimeCaptureISO":"2025-11-07T09:17:05.213Z"},"hostname":"UA01-SRV01","synced":true,"syncAttempts":0,"lastSyncAttempt":null,"createdAt":"2026-03-10T13:49:31.770Z","_id":"8NjXiXs3D9JH9Bbn","syncedAt":"2026-03-10T13:49:31.827Z"}
{"timestamp":"2026-03-10T13:46:50.470Z","CameraFeedbackMessage":{"targetSystem":0,"camIdx":0,"imgIdx":194,"lat":612323036,"lng":88941944,"altMsl":796.25,"altRel":-114.86000061035156,"roll":0,"pitch":-0.7400000095367432,"yaw":142.2899932861328,"focLen":0,"flags":0,"completedCaptures":0},"GimbalOrientation":{"timeBootMs":3020000,"roll":-0.019139772281050682,"pitch":-63.39619445800781,"yaw":-99.019775390625,"yawAbsolute":43.17308044433594},"SystemTime":{"seq":1050,"total":3759,"missionState":3,"missionMode":1,"missionId":0,"fenceId":0,"rallyPointsId":0,"msg_name":"MISSION_CURRENT","MISSION_CURRENT":{"seq":1050,"total":3759,"missionState":3,"missionMode":1,"missionId":0,"fenceId":0,"rallyPointsId":0}},"Mastdata":null,"Custom":{"dateTimeCaptureISO":"2025-11-07T09:14:54.208Z"},"hostname":"UA01-SRV01","synced":true,"syncAttempts":0,"lastSyncAttempt":null,"createdAt":"2026-03-10T13:46:50.470Z","_id":"8Tks6uezsMvzAkwT","syncedAt":"2026-03-10T13:46:50.533Z"}
{"timestamp":"2026-03-10T13:36:22.569Z","CameraFeedbackMessage":{"targetSystem":0,"camIdx":0,"imgIdx":108,"lat":612415698,"lng":88737310,"altMsl":787.0999755859375,"altRel":-124.00999450683594,"roll":0.41999998688697815,"pitch":-1.7999999523162842,"yaw":121.15999603271484,"focLen":0,"flags":0,"completedCaptures":0},"GimbalOrientation":{"timeBootMs":3915452,"roll":0.002609731862321496,"pitch":-46.64835739135742,"yaw":-28.355712890625,"yawAbsolute":92.28099060058594},"SystemTime":{"seq":550,"total":3759,"missionState":3,"missionMode":1,"missionId":0,"fenceId":0,"rallyPointsId":0,"msg_name":"MISSION_CURRENT","MISSION_CURRENT":{"seq":550,"total":3759,"missionState":3,"missionMode":1,"missionId":0,"fenceId":0,"rallyPointsId":0}},"Mastdata":null,"Custom":{"dateTimeCaptureISO":"2025-11-07T09:06:28.208Z"},"hostname":"UA01-SRV01","synced":true,"syncAttempts":0,"lastSyncAttempt":null,"createdAt":"2026-03-10T13:36:22.569Z","_id":"8Z698Hpr0jkaYIyl","syncedAt":"2026-03-10T13:36:22.662Z"}
{"timestamp":"2026-03-10T13:55:10.150Z","CameraFeedbackMessage":{"targetSystem":0,"camIdx":0,"imgIdx":266,"lat":612226352,"lng":89052166,"altMsl":815.2000122070312,"altRel":-95.90999603271484,"roll":-0.17000000178813934,"pitch":-2.4800000190734863,"yaw":138.92999267578125,"focLen":0,"flags":0,"completedCaptures":0},"GimbalOrientation":{"timeBootMs":2209620,"roll":-0.04484003782272339,"pitch":-63.626766204833984,"yaw":-98.624267578125,"yawAbsolute":40.405311584472656},"SystemTime":{"seq":1478,"total":3759,"missionState":3,"missionMode":1,"missionId":0,"fenceId":0,"rallyPointsId":0,"msg_name":"MISSION_CURRENT","MISSION_CURRENT":{"seq":1478,"total":3759,"missionState":3,"missionMode":1,"missionId":0,"fenceId":0,"rallyPointsId":0}},"Mastdata":null,"Custom":{"dateTimeCaptureISO":"2025-11-07T09:21:38.208Z"},"hostname":"UA01-SRV01","synced":true,"syncAttempts":0,"lastSyncAttempt":null,"createdAt":"2026-03-10T13:55:10.150Z","_id":"8maaHXLLfwNPvCJt","syncedAt":"2026-03-10T13:55:10.244Z"}
{"timestamp":"2026-03-10T13:57:09.350Z","CameraFeedbackMessage":{"targetSystem":0,"camIdx":0,"imgIdx":282,"lat":612205093,"lng":89091008,"altMsl":818.1099853515625,"altRel":-93,"roll":0.04999999701976776,"pitch":-1.350000023841858,"yaw":138.91000366210938,"focLen":0,"flags":0,"completedCaptures":0},"GimbalOrientation":{"timeBootMs":1090813,"roll":-0.028022926300764084,"pitch":-43.87949752807617,"yaw":-28.421630859375,"yawAbsolute":110.07261657714844},"SystemTime":{"seq":1570,"total":3759,"missionState":3,"missionMode":1,"missionId":0,"fenceId":0,"rallyPointsId":0,"msg_name":"MISSION_CURRENT","MISSION_CURRENT":{"seq":1570,"total":3759,"missionState":3,"missionMode":1,"missionId":0,"fenceId":0,"rallyPointsId":0}},"Mastdata":null,"Custom":{"dateTimeCaptureISO":"2025-11-07T09:23:13.708Z"},"hostname":"UA01-SRV01","synced":true,"syncAttempts":0,"lastSyncAttempt":null,"createdAt":"2026-03-10T13:57:09.350Z","_id":"9AXwS4Bw4nnFMNSR","syncedAt":"2026-03-10T13:57:09.398Z"}
{"timestamp":"2026-03-10T13:34:18.458Z","CameraFeedbackMessage":{"targetSystem":0,"camIdx":0,"imgIdx":98,"lat":612423498,"lng":88739229,"altMsl":801.1499633789062,"altRel":-109.95999908447266,"roll":-0.7199999690055847,"pitch":-3.1399998664855957,"yaw":52.16999816894531,"focLen":0,"flags":0,"completedCaptures":0},"GimbalOrientation":{"timeBootMs":4254998,"roll":0.08138561248779297,"pitch":-66.99958801269531,"yaw":-97.196044921875,"yawAbsolute":-44.75895309448242},"SystemTime":{"seq":497,"total":3759,"missionState":3,"missionMode":1,"missionId":0,"fenceId":0,"rallyPointsId":0,"msg_name":"MISSION_CURRENT","MISSION_CURRENT":{"seq":497,"total":3759,"missionState":3,"missionMode":1,"missionId":0,"fenceId":0,"rallyPointsId":0}},"Mastdata":null,"Custom":{"dateTimeCaptureISO":"2025-11-07T09:04:47.708Z"},"hostname":"UA01-SRV01","synced":true,"syncAttempts":0,"lastSyncAttempt":null,"createdAt":"2026-03-10T13:34:18.458Z","_id":"9ffGYR3JaBsqkwNC","syncedAt":"2026-03-10T13:34:18.522Z"}
{"timestamp":"2026-03-10T14:04:09.080Z","CameraFeedbackMessage":{"targetSystem":0,"camIdx":0,"imgIdx":329,"lat":612134804,"lng":89241211,"altMsl":825,"altRel":-86.11000061035156,"roll":-0.7099999785423279,"pitch":-0.7899999618530273,"yaw":341.6199951171875,"focLen":0,"flags":0,"completedCaptures":0},"GimbalOrientation":{"timeBootMs":1554397,"roll":0.066905178129673,"pitch":-65.30522918701172,"yaw":-103.304443359375,"yawAbsolute":-121.77925109863281},"SystemTime":{"seq":1821,"total":3759,"missionState":3,"missionMode":1,"missionId":0,"fenceId":0,"rallyPointsId":0,"msg_name":"MISSION_CURRENT","MISSION_CURRENT":{"seq":1821,"total":3759,"missionState":3,"missionMode":1,"missionId":0,"fenceId":0,"rallyPointsId":0}},"Mastdata":null,"Custom":{"dateTimeCaptureISO":"2025-11-07T09:28:48.711Z"},"hostname":"UA01-SRV01","synced":true,"syncAttempts":0,"lastSyncAttempt":null,"createdAt":"2026-03-10T14:04:09.080Z","_id":"9jjNEzsBvCaoRx9Q","syncedAt":"2026-03-10T14:04:09.129Z"}
{"timestamp":"2026-03-10T13:57:21.682Z","CameraFeedbackMessage":{"targetSystem":0,"camIdx":0,"imgIdx":284,"lat":612203068,"lng":89094681,"altMsl":819.8299560546875,"altRel":-91.27999877929688,"roll":0.7199999690055847,"pitch":-2.059999942779541,"yaw":138.5,"focLen":0,"flags":0,"completedCaptures":0},"GimbalOrientation":{"timeBootMs":2751923,"roll":-0.028162753209471703,"pitch":-64.35260009765625,"yaw":-98.668212890625,"yawAbsolute":39.69181823730469},"SystemTime":{"seq":1582,"total":3759,"missionState":3,"missionMode":1,"missionId":0,"fenceId":0,"rallyPointsId":0,"msg_name":"MISSION_CURRENT","MISSION_CURRENT":{"seq":1582,"total":3759,"missionState":3,"missionMode":1,"missionId":0,"fenceId":0,"rallyPointsId":0}},"Mastdata":null,"Custom":{"dateTimeCaptureISO":"2025-11-07T09:23:23.708Z"},"hostname":"UA01-SRV01","synced":true,"syncAttempts":0,"lastSyncAttempt":null,"createdAt":"2026-03-10T13:57:21.682Z","_id":"9kAS7KEc8b1OZ32W","syncedAt":"2026-03-10T13:57:21.741Z"}
{"timestamp":"2026-03-10T13:44:49.278Z","CameraFeedbackMessage":{"targetSystem":0,"camIdx":0,"imgIdx":177,"lat":612343237,"lng":88909434,"altMsl":794.72998046875,"altRel":-116.37999725341797,"roll":0.4899999797344208,"pitch":-1.6999999284744263,"yaw":141.75999450683594,"focLen":0,"flags":0,"completedCaptures":0},"GimbalOrientation":{"timeBootMs":3782473,"roll":0.020044639706611633,"pitch":-45.38385772705078,"yaw":-28.092041015625,"yawAbsolute":113.21693420410156},"SystemTime":{"seq":948,"total":3759,"missionState":3,"missionMode":1,"missionId":0,"fenceId":0,"rallyPointsId":0,"msg_name":"MISSION_CURRENT","MISSION_CURRENT":{"seq":948,"total":3759,"missionState":3,"missionMode":1,"missionId":0,"fenceId":0,"rallyPointsId":0}},"Mastdata":null,"Custom":{"dateTimeCaptureISO":"2025-11-07T09:13:16.208Z"},"hostname":"UA01-SRV01","synced":true,"syncAttempts":0,"lastSyncAttempt":null,"createdAt":"2026-03-10T13:44:49.278Z","_id":"9s31yIAphuUmqfBT","syncedAt":"2026-03-10T13:44:49.338Z"}
{"timestamp":"2026-03-10T13:57:41.227Z","CameraFeedbackMessage":{"targetSystem":0,"camIdx":0,"imgIdx":287,"lat":612199820,"lng":89100610,"altMsl":823.0999755859375,"altRel":-88.00999450683594,"roll":0.5099999904632568,"pitch":-1.2899999618530273,"yaw":138.75,"focLen":0,"flags":0,"completedCaptures":0},"GimbalOrientation":{"timeBootMs":1082340,"roll":-0.040921397507190704,"pitch":-63.9158935546875,"yaw":-99.371337890625,"yawAbsolute":39.08333969116211},"SystemTime":{"seq":1600,"total":3759,"missionState":3,"missionMode":1,"missionId":0,"fenceId":0,"rallyPointsId":0,"msg_name":"MISSION_CURRENT","MISSION_CURRENT":{"seq":1600,"total":3759,"missionState":3,"missionMode":1,"missionId":0,"fenceId":0,"rallyPointsId":0}},"Mastdata":null,"Custom":{"dateTimeCaptureISO":"2025-11-07T09:23:39.211Z"},"hostname":"UA01-SRV01","synced":true,"syncAttempts":0,"lastSyncAttempt":null,"createdAt":"2026-03-10T13:57:41.227Z","_id":"A3Y59deKfhnWVMVe","syncedAt":"2026-03-10T13:57:41.318Z"}
{"timestamp":"2026-03-10T13:48:18.265Z","CameraFeedbackMessage":{"targetSystem":0,"camIdx":0,"imgIdx":207,"lat":612307869,"lng":88966454,"altMsl":812.5700073242188,"altRel":-98.54000091552734,"roll":0.3100000023841858,"pitch":-1.100000023841858,"yaw":142.19000244140625,"focLen":0,"flags":0,"completedCaptures":0},"GimbalOrientation":{"timeBootMs":2163920,"roll":-0.04266667366027832,"pitch":-45.42863464355469,"yaw":-28.421630859375,"yawAbsolute":113.21234893798828},"SystemTime":{"seq":1128,"total":3759,"missionState":3,"missionMode":1,"missionId":0,"fenceId":0,"rallyPointsId":0,"msg_name":"MISSION_CURRENT","MISSION_CURRENT":{"seq":1128,"total":3759,"missionState":3,"missionMode":1,"missionId":0,"fenceId":0,"rallyPointsId":0}},"Mastdata":null,"Custom":{"dateTimeCaptureISO":"2025-11-07T09:16:05.708Z"},"hostname":"UA01-SRV01","synced":true,"syncAttempts":0,"lastSyncAttempt":null,"createdAt":"2026-03-10T13:48:18.265Z","_id":"ABZmec2JuFjRXeyl","syncedAt":"2026-03-10T13:48:18.361Z"}
{"timestamp":"2026-03-10T14:02:10.554Z","CameraFeedbackMessage":{"targetSystem":0,"camIdx":0,"imgIdx":322,"lat":612161785,"lng":89236995,"altMsl":846.0199584960938,"altRel":-65.08999633789062,"roll":-0.429999977350235,"pitch":0.28999999165534973,"yaw":118.91999816894531,"focLen":0,"flags":0,"completedCaptures":0},"GimbalOrientation":{"timeBootMs":2776116,"roll":0.012501823715865612,"pitch":-51.27375030517578,"yaw":-27.828369140625,"yawAbsolute":89.58769226074219},"SystemTime":{"seq":1784,"total":3759,"missionState":3,"missionMode":1,"missionId":0,"fenceId":0,"rallyPointsId":0,"msg_name":"MISSION_CURRENT","MISSION_CURRENT":{"seq":1784,"total":3759,"missionState":3,"missionMode":1,"missionId":0,"fenceId":0,"rallyPointsId":0}},"Mastdata":null,"Custom":{"dateTimeCaptureISO":"2025-11-07T09:27:13.713Z"},"hostname":"UA01-SRV01","synced":true,"syncAttempts":0,"lastSyncAttempt":null,"createdAt":"2026-03-10T14:02:10.555Z","_id":"AEDmkt5hZGrMwe0c","syncedAt":"2026-03-10T14:02:10.612Z"}
{"timestamp":"2026-03-10T13:42:58.169Z","CameraFeedbackMessage":{"targetSystem":0,"camIdx":0,"imgIdx":161,"lat":612361959,"lng":88879088,"altMsl":793.8099975585938,"altRel":-117.29999542236328,"roll":0.47999998927116394,"pitch":-1.9199999570846558,"yaw":142.09999084472656,"focLen":0,"flags":0,"completedCaptures":0},"GimbalOrientation":{"timeBootMs":1638634,"roll":-0.03432251513004303,"pitch":-61.89800262451172,"yaw":-99.832763671875,"yawAbsolute":42.03865051269531},"SystemTime":{"seq":852,"total":3759,"missionState":3,"missionMode":1,"missionId":0,"fenceId":0,"rallyPointsId":0,"msg_name":"MISSION_CURRENT","MISSION_CURRENT":{"seq":852,"total":3759,"missionState":3,"missionMode":1,"missionId":0,"fenceId":0,"rallyPointsId":0}},"Mastdata":null,"Custom":{"dateTimeCaptureISO":"2025-11-07T09:11:46.708Z"},"hostname":"UA01-SRV01","synced":true,"syncAttempts":0,"lastSyncAttempt":null,"createdAt":"2026-03-10T13:42:58.169Z","_id":"AGYWIH1FWBHxTesY","syncedAt":"2026-03-10T13:42:58.270Z"}
{"timestamp":"2026-03-10T13:52:01.468Z","CameraFeedbackMessage":{"targetSystem":0,"camIdx":0,"imgIdx":239,"lat":612262496,"lng":89015680,"altMsl":810.72998046875,"altRel":-100.37999725341797,"roll":0.5699999928474426,"pitch":-1.6100000143051147,"yaw":161.77999877929688,"focLen":0,"flags":0,"completedCaptures":0},"GimbalOrientation":{"timeBootMs":2564198,"roll":-0.0029739239253103733,"pitch":-62.784061431884766,"yaw":-99.129638671875,"yawAbsolute":62.67501449584961},"SystemTime":{"seq":1316,"total":3759,"missionState":3,"missionMode":1,"missionId":0,"fenceId":0,"rallyPointsId":0,"msg_name":"MISSION_CURRENT","MISSION_CURRENT":{"seq":1316,"total":3759,"missionState":3,"missionMode":1,"missionId":0,"fenceId":0,"rallyPointsId":0}},"Mastdata":null,"Custom":{"dateTimeCaptureISO":"2025-11-07T09:19:06.711Z"},"hostname":"UA01-SRV01","synced":true,"syncAttempts":0,"lastSyncAttempt":null,"createdAt":"2026-03-10T13:52:01.468Z","_id":"AUx5GDwW4rwghL99","syncedAt":"2026-03-10T13:52:01.525Z"}
{"timestamp":"2026-03-10T13:51:52.303Z","CameraFeedbackMessage":{"targetSystem":0,"camIdx":0,"imgIdx":238,"lat":612264330,"lng":89014417,"altMsl":810.1499633789062,"altRel":-100.95999908447266,"roll":0.17999999225139618,"pitch":-1.3700000047683716,"yaw":161.59999084472656,"focLen":0,"flags":0,"completedCaptures":0},"GimbalOrientation":{"timeBootMs":1309929,"roll":-0.034590672701597214,"pitch":-40.31890869140625,"yaw":-156.500244140625,"yawAbsolute":6.259639263153076},"SystemTime":{"seq":1310,"total":3759,"missionState":3,"missionMode":1,"missionId":0,"fenceId":0,"rallyPointsId":0,"msg_name":"MISSION_CURRENT","MISSION_CURRENT":{"seq":1310,"total":3759,"missionState":3,"missionMode":1,"missionId":0,"fenceId":0,"rallyPointsId":0}},"Mastdata":null,"Custom":{"dateTimeCaptureISO":"2025-11-07T09:18:59.211Z"},"hostname":"UA01-SRV01","synced":true,"syncAttempts":0,"lastSyncAttempt":null,"createdAt":"2026-03-10T13:51:52.304Z","_id":"AdtRZJ3YHFiRT3de","syncedAt":"2026-03-10T13:51:52.409Z"}
{"timestamp":"2026-03-10T13:56:44.276Z","CameraFeedbackMessage":{"targetSystem":0,"camIdx":0,"imgIdx":279,"lat":612210749,"lng":89080682,"altMsl":814.3299560546875,"altRel":-96.77999877929688,"roll":0.6899999976158142,"pitch":-3.2799999713897705,"yaw":138.59999084472656,"focLen":0,"flags":0,"completedCaptures":0},"GimbalOrientation":{"timeBootMs":2065507,"roll":0.011056487448513508,"pitch":-40.874000549316406,"yaw":-155.621337890625,"yawAbsolute":-16.272472381591797},"SystemTime":{"seq":1554,"total":3759,"missionState":3,"missionMode":1,"missionId":0,"fenceId":0,"rallyPointsId":0,"msg_name":"MISSION_CURRENT","MISSION_CURRENT":{"seq":1554,"total":3759,"missionState":3,"missionMode":1,"missionId":0,"fenceId":0,"rallyPointsId":0}},"Mastdata":null,"Custom":{"dateTimeCaptureISO":"2025-11-07T09:22:53.708Z"},"hostname":"UA01-SRV01","synced":true,"syncAttempts":0,"lastSyncAttempt":null,"createdAt":"2026-03-10T13:56:44.276Z","_id":"BEGNEagc5wnVJibT","syncedAt":"2026-03-10T13:56:44.328Z"}
{"timestamp":"2026-03-10T13:48:51.777Z","CameraFeedbackMessage":{"targetSystem":0,"camIdx":0,"imgIdx":212,"lat":612302130,"lng":88975732,"altMsl":819.8599853515625,"altRel":-91.25,"roll":0.6399999856948853,"pitch":-0.5799999833106995,"yaw":141.5699920654297,"focLen":0,"flags":0,"completedCaptures":0},"GimbalOrientation":{"timeBootMs":2444128,"roll":0.005998881068080664,"pitch":-64.74365997314453,"yaw":-98.250732421875,"yawAbsolute":43.351341247558594},"SystemTime":{"seq":1158,"total":3759,"missionState":3,"missionMode":1,"missionId":0,"fenceId":0,"rallyPointsId":0,"msg_name":"MISSION_CURRENT","MISSION_CURRENT":{"seq":1158,"total":3759,"missionState":3,"missionMode":1,"missionId":0,"fenceId":0,"rallyPointsId":0}},"Mastdata":null,"Custom":{"dateTimeCaptureISO":"2025-11-07T09:16:32.711Z"},"hostname":"UA01-SRV01","synced":true,"syncAttempts":0,"lastSyncAttempt":null,"createdAt":"2026-03-10T13:48:51.777Z","_id":"BUe2T6iegFDcy3G0","syncedAt":"2026-03-10T13:48:51.884Z"}
{"timestamp":"2026-03-10T14:04:00.675Z","CameraFeedbackMessage":{"targetSystem":0,"camIdx":0,"imgIdx":328,"lat":612133338,"lng":89242209,"altMsl":827.2999877929688,"altRel":-83.80999755859375,"roll":-0.6599999666213989,"pitch":-4.269999980926514,"yaw":341.82000732421875,"focLen":0,"flags":0,"completedCaptures":0},"GimbalOrientation":{"timeBootMs":436207,"roll":0.03139661252498627,"pitch":-42.298728942871094,"yaw":-156.763916015625,"yawAbsolute":-173.68438720703125},"SystemTime":{"seq":1815,"total":3759,"missionState":3,"missionMode":1,"missionId":0,"fenceId":0,"rallyPointsId":0,"msg_name":"MISSION_CURRENT","MISSION_CURRENT":{"seq":1815,"total":3759,"missionState":3,"missionMode":1,"missionId":0,"fenceId":0,"rallyPointsId":0}},"Mastdata":null,"Custom":{"dateTimeCaptureISO":"2025-11-07T09:28:42.211Z"},"hostname":"UA01-SRV01","synced":true,"syncAttempts":0,"lastSyncAttempt":null,"createdAt":"2026-03-10T14:04:00.675Z","_id":"Bnl9H4kuneXuezaR","syncedAt":"2026-03-10T14:04:00.770Z"}
{"timestamp":"2026-03-10T13:48:23.575Z","CameraFeedbackMessage":{"targetSystem":0,"camIdx":0,"imgIdx":208,"lat":612307061,"lng":88967761,"altMsl":813.239990234375,"altRel":-97.8699951171875,"roll":0.6399999856948853,"pitch":-0.5600000023841858,"yaw":142.25999450683594,"focLen":0,"flags":0,"completedCaptures":0},"GimbalOrientation":{"timeBootMs":2875936,"roll":-0.024486634880304337,"pitch":-44.08723449707031,"yaw":-156.544189453125,"yawAbsolute":-13.240212440490723},"SystemTime":{"seq":1134,"total":3759,"missionState":3,"missionMode":1,"missionId":0,"fenceId":0,"rallyPointsId":0,"msg_name":"MISSION_CURRENT","MISSION_CURRENT":{"seq":1134,"total":3759,"missionState":3,"missionMode":1,"missionId":0,"fenceId":0,"rallyPointsId":0}},"Mastdata":null,"Custom":{"dateTimeCaptureISO":"2025-11-07T09:16:09.711Z"},"hostname":"UA01-SRV01","synced":true,"syncAttempts":0,"lastSyncAttempt":null,"createdAt":"2026-03-10T13:48:23.576Z","_id":"C8KjF59qNRjcKNF5","syncedAt":"2026-03-10T13:48:23.689Z"}
