{"timestamp":"2025-06-12T10:14:30.489Z","CameraFeedbackMessage":{"targetSystem":0,"camIdx":0,"imgIdx":61,"lat":598521294,"lng":95747999,"altMsl":287.239990234375,"altRel":71.61000061035156,"roll":1.9299999475479126,"pitch":2.1399998664855957,"yaw":26.85999870300293,"focLen":0,"flags":0,"completedCaptures":0,"msg_name":"CAMERA_FEEDBACK","CAMERA_FEEDBACK":{"targetSystem":0,"camIdx":0,"imgIdx":61,"lat":598521294,"lng":95747999,"altMsl":287.239990234375,"altRel":71.61000061035156,"roll":1.9299999475479126,"pitch":2.1399998664855957,"yaw":26.85999870300293,"focLen":0,"flags":0,"completedCaptures":0}},"GimbalOrientation":{"timeBootMs":1408905,"roll":0.016807781532406807,"pitch":-39.53071212768555,"yaw":-12.513427734375,"yawAbsolute":13.053153991699219,"msg_name":"MOUNT_ORIENTATION","MOUNT_ORIENTATION":{"timeBootMs":1408905,"roll":0.016807781532406807,"pitch":-39.53071212768555,"yaw":-12.513427734375,"yawAbsolute":13.053153991699219}},"SystemTime":{"seq":297,"total":2135,"missionState":3,"missionMode":1,"missionId":0,"fenceId":0,"rallyPointsId":0,"msg_name":"MISSION_CURRENT","MISSION_CURRENT":{"seq":297,"total":2135,"missionState":3,"missionMode":1,"missionId":0,"fenceId":0,"rallyPointsId":0}},"Custom":{"dateTimeCaptureISO":"2025-06-12T10:14:21.317Z"},"_id":"ikecdhsZOPbpRHqp"}
{"timestamp":"2025-06-03T12:01:53.089Z","CameraFeedbackMessage":{"targetSystem":0,"camIdx":0,"imgIdx":37,"lat":600071677,"lng":97249300,"altMsl":199.44000244140625,"altRel":77.69999694824219,"roll":-0.09999999403953552,"pitch":5.230000019073486,"yaw":355.53997802734375,"focLen":0,"flags":0,"completedCaptures":0,"msg_name":"CAMERA_FEEDBACK","CAMERA_FEEDBACK":{"targetSystem":0,"camIdx":0,"imgIdx":37,"lat":600071677,"lng":97249300,"altMsl":199.44000244140625,"altRel":77.69999694824219,"roll":-0.09999999403953552,"pitch":5.230000019073486,"yaw":355.53997802734375,"focLen":0,"flags":0,"completedCaptures":0}},"GimbalOrientation":{"timeBootMs":1125259,"roll":0.024672921746969223,"pitch":-54.18595886230469,"yaw":13.4967041015625,"yawAbsolute":9.59253978729248,"msg_name":"MOUNT_ORIENTATION","MOUNT_ORIENTATION":{"timeBootMs":1125259,"roll":0.024672921746969223,"pitch":-54.18595886230469,"yaw":13.4967041015625,"yawAbsolute":9.59253978729248}},"SystemTime":{"seq":184,"total":1305,"missionState":3,"missionMode":1,"missionId":0,"fenceId":0,"rallyPointsId":0,"msg_name":"MISSION_CURRENT","MISSION_CURRENT":{"seq":184,"total":1305,"missionState":3,"missionMode":1,"missionId":0,"fenceId":0,"rallyPointsId":0}},"Custom":{"dateTimeCaptureISO":"2025-06-03T12:01:52.762Z"},"_id":"imyST6JIeHz9PUoO"}
{"timestamp":"2025-06-13T07:09:33.397Z","CameraFeedbackMessage":{"targetSystem":0,"camIdx":0,"imgIdx":150,"lat":599461256,"lng":95529101,"altMsl":486.1499938964844,"altRel":116.83999633789062,"roll":1.2300000190734863,"pitch":-6.649999618530273,"yaw":169.22000122070312,"focLen":0,"flags":0,"completedCaptures":0,"msg_name":"CAMERA_FEEDBACK","CAMERA_FEEDBACK":{"targetSystem":0,"camIdx":0,"imgIdx":150,"lat":599461256,"lng":95529101,"altMsl":486.1499938964844,"altRel":116.83999633789062,"roll":1.2300000190734863,"pitch":-6.649999618530273,"yaw":169.22000122070312,"focLen":0,"flags":0,"completedCaptures":0}},"GimbalOrientation":{"timeBootMs":479568,"roll":-0.014578035101294518,"pitch":-48.24188995361328,"yaw":-13.2220458984375,"yawAbsolute":155.13999938964844,"msg_name":"MOUNT_ORIENTATION","MOUNT_ORIENTATION":{"timeBootMs":479568,"roll":-0.014578035101294518,"pitch":-48.24188995361328,"yaw":-13.2220458984375,"yawAbsolute":155.13999938964844}},"SystemTime":{"seq":647,"total":3158,"missionState":3,"missionMode":1,"missionId":0,"fenceId":0,"rallyPointsId":0,"msg_name":"MISSION_CURRENT","MISSION_CURRENT":{"seq":647,"total":3158,"missionState":3,"missionMode":1,"missionId":0,"fenceId":0,"rallyPointsId":0}},"Custom":{"dateTimeCaptureISO":"2025-06-13T07:09:32.807Z"},"_id":"inLGmQZAsRK3HBWQ"}
{"timestamp":"2025-06-11T13:06:49.103Z","CameraFeedbackMessage":{"targetSystem":0,"camIdx":0,"imgIdx":259,"lat":599888971,"lng":99639614,"altMsl":201.3199920654297,"altRel":74.1500015258789,"roll":-2.7300000190734863,"pitch":-1.2999999523162842,"yaw":179.72999572753906,"focLen":0,"flags":0,"completedCaptures":0,"msg_name":"CAMERA_FEEDBACK","CAMERA_FEEDBACK":{"targetSystem":0,"camIdx":0,"imgIdx":259,"lat":599888971,"lng":99639614,"altMsl":201.3199920654297,"altRel":74.1500015258789,"roll":-2.7300000190734863,"pitch":-1.2999999523162842,"yaw":179.72999572753906,"focLen":0,"flags":0,"completedCaptures":0}},"GimbalOrientation":{"timeBootMs":3121016,"roll":-0.0034549818374216557,"pitch":-43.68336868286133,"yaw":-13.0462646484375,"yawAbsolute":165.7255859375,"msg_name":"MOUNT_ORIENTATION","MOUNT_ORIENTATION":{"timeBootMs":3121016,"roll":-0.0034549818374216557,"pitch":-43.68336868286133,"yaw":-13.0462646484375,"yawAbsolute":165.7255859375}},"SystemTime":{"seq":542,"total":908,"missionState":3,"missionMode":1,"missionId":0,"fenceId":0,"rallyPointsId":0,"msg_name":"MISSION_CURRENT","MISSION_CURRENT":{"seq":542,"total":908,"missionState":3,"missionMode":1,"missionId":0,"fenceId":0,"rallyPointsId":0}},"Custom":{"dateTimeCaptureISO":"2025-06-11T13:06:48.800Z"},"_id":"iomLegJzZN6PlSJc"}
{"timestamp":"2025-06-12T12:18:18.663Z","CameraFeedbackMessage":{"targetSystem":0,"camIdx":0,"imgIdx":135,"lat":598014740,"lng":95663726,"altMsl":262.7799987792969,"altRel":80.79999542236328,"roll":-1.059999942779541,"pitch":-2.2300000190734863,"yaw":186.09999084472656,"focLen":0,"flags":0,"completedCaptures":0,"msg_name":"CAMERA_FEEDBACK","CAMERA_FEEDBACK":{"targetSystem":0,"camIdx":0,"imgIdx":135,"lat":598014740,"lng":95663726,"altMsl":262.7799987792969,"altRel":80.79999542236328,"roll":-1.059999942779541,"pitch":-2.2300000190734863,"yaw":186.09999084472656,"focLen":0,"flags":0,"completedCaptures":0}},"GimbalOrientation":{"timeBootMs":3414284,"roll":0.006767771206796169,"pitch":-46.65558624267578,"yaw":-13.6614990234375,"yawAbsolute":171.99432373046875,"msg_name":"MOUNT_ORIENTATION","MOUNT_ORIENTATION":{"timeBootMs":3414284,"roll":0.006767771206796169,"pitch":-46.65558624267578,"yaw":-13.6614990234375,"yawAbsolute":171.99432373046875}},"SystemTime":{"seq":699,"total":2116,"missionState":3,"missionMode":1,"missionId":0,"fenceId":0,"rallyPointsId":0,"msg_name":"MISSION_CURRENT","MISSION_CURRENT":{"seq":699,"total":2116,"missionState":3,"missionMode":1,"missionId":0,"fenceId":0,"rallyPointsId":0}},"Custom":{"dateTimeCaptureISO":"2025-06-12T12:18:09.204Z"},"_id":"ipKbB3CAK72asfT8"}
{"timestamp":"2025-06-12T10:37:52.323Z","CameraFeedbackMessage":{"targetSystem":0,"camIdx":0,"imgIdx":219,"lat":598619729,"lng":95863012,"altMsl":370.3599853515625,"altRel":154.72999572753906,"roll":3.4800000190734863,"pitch":-3.049999952316284,"yaw":83.08000183105469,"focLen":0,"flags":0,"completedCaptures":0,"msg_name":"CAMERA_FEEDBACK","CAMERA_FEEDBACK":{"targetSystem":0,"camIdx":0,"imgIdx":219,"lat":598619729,"lng":95863012,"altMsl":370.3599853515625,"altRel":154.72999572753906,"roll":3.4800000190734863,"pitch":-3.049999952316284,"yaw":83.08000183105469,"focLen":0,"flags":0,"completedCaptures":0}},"GimbalOrientation":{"timeBootMs":697283,"roll":-0.00648427614942193,"pitch":-51.36690139770508,"yaw":-166.409912109375,"yawAbsolute":-82.35257720947266,"msg_name":"MOUNT_ORIENTATION","MOUNT_ORIENTATION":{"timeBootMs":697283,"roll":-0.00648427614942193,"pitch":-51.36690139770508,"yaw":-166.409912109375,"yawAbsolute":-82.35257720947266}},"SystemTime":{"seq":1106,"total":2135,"missionState":3,"missionMode":1,"missionId":0,"fenceId":0,"rallyPointsId":0,"msg_name":"MISSION_CURRENT","MISSION_CURRENT":{"seq":1106,"total":2135,"missionState":3,"missionMode":1,"missionId":0,"fenceId":0,"rallyPointsId":0}},"Custom":{"dateTimeCaptureISO":"2025-06-12T10:37:42.817Z"},"_id":"ipkhzjlvfSrA2CDd"}
{"timestamp":"2025-06-13T07:55:10.708Z","CameraFeedbackMessage":{"targetSystem":0,"camIdx":0,"imgIdx":420,"lat":599536874,"lng":94628427,"altMsl":455.4499816894531,"altRel":86.13999938964844,"roll":-4.409999847412109,"pitch":-8.970000267028809,"yaw":191.4099884033203,"focLen":0,"flags":0,"completedCaptures":0,"msg_name":"CAMERA_FEEDBACK","CAMERA_FEEDBACK":{"targetSystem":0,"camIdx":0,"imgIdx":420,"lat":599536874,"lng":94628427,"altMsl":455.4499816894531,"altRel":86.13999938964844,"roll":-4.409999847412109,"pitch":-8.970000267028809,"yaw":191.4099884033203,"focLen":0,"flags":0,"completedCaptures":0}},"GimbalOrientation":{"timeBootMs":788568,"roll":-0.0035134940408170223,"pitch":-49.20325469970703,"yaw":-167.2943115234375,"yawAbsolute":25.098541259765625,"msg_name":"MOUNT_ORIENTATION","MOUNT_ORIENTATION":{"timeBootMs":788568,"roll":-0.0035134940408170223,"pitch":-49.20325469970703,"yaw":-167.2943115234375,"yawAbsolute":25.098541259765625}},"SystemTime":{"seq":1916,"total":3158,"missionState":3,"missionMode":1,"missionId":0,"fenceId":0,"rallyPointsId":0,"msg_name":"MISSION_CURRENT","MISSION_CURRENT":{"seq":1916,"total":3158,"missionState":3,"missionMode":1,"missionId":0,"fenceId":0,"rallyPointsId":0}},"Custom":{"dateTimeCaptureISO":"2025-06-13T07:55:10.306Z"},"_id":"iqR6thHGceqZm1iF"}
{"timestamp":"2025-06-13T09:22:49.139Z","CameraFeedbackMessage":{"targetSystem":0,"camIdx":0,"imgIdx":324,"lat":599010798,"lng":95150050,"altMsl":292.94000244140625,"altRel":-138.5800018310547,"roll":-0.08999999612569809,"pitch":-9.229999542236328,"yaw":225.95999145507812,"focLen":0,"flags":0,"completedCaptures":0,"msg_name":"CAMERA_FEEDBACK","CAMERA_FEEDBACK":{"targetSystem":0,"camIdx":0,"imgIdx":324,"lat":599010798,"lng":95150050,"altMsl":292.94000244140625,"altRel":-138.5800018310547,"roll":-0.08999999612569809,"pitch":-9.229999542236328,"yaw":225.95999145507812,"focLen":0,"flags":0,"completedCaptures":0}},"GimbalOrientation":{"timeBootMs":3218231,"roll":0.009043714962899685,"pitch":-45.15858840942383,"yaw":-166.8548583984375,"yawAbsolute":60.249481201171875,"msg_name":"MOUNT_ORIENTATION","MOUNT_ORIENTATION":{"timeBootMs":3218231,"roll":0.009043714962899685,"pitch":-45.15858840942383,"yaw":-166.8548583984375,"yawAbsolute":60.249481201171875}},"SystemTime":{"seq":816,"total":2760,"missionState":3,"missionMode":1,"missionId":0,"fenceId":0,"rallyPointsId":0,"msg_name":"MISSION_CURRENT","MISSION_CURRENT":{"seq":816,"total":2760,"missionState":3,"missionMode":1,"missionId":0,"fenceId":0,"rallyPointsId":0}},"Custom":{"dateTimeCaptureISO":"2025-06-13T09:22:39.738Z"},"_id":"iqXAkeDi6SJpVYqc"}
{"timestamp":"2025-06-13T09:37:47.634Z","CameraFeedbackMessage":{"targetSystem":0,"camIdx":0,"imgIdx":446,"lat":598870978,"lng":95408336,"altMsl":381.6000061035156,"altRel":-49.91999816894531,"roll":5.789999961853027,"pitch":-5.089999675750732,"yaw":91.5199966430664,"focLen":0,"flags":0,"completedCaptures":0,"msg_name":"CAMERA_FEEDBACK","CAMERA_FEEDBACK":{"targetSystem":0,"camIdx":0,"imgIdx":446,"lat":598870978,"lng":95408336,"altMsl":381.6000061035156,"altRel":-49.91999816894531,"roll":5.789999961853027,"pitch":-5.089999675750732,"yaw":91.5199966430664,"focLen":0,"flags":0,"completedCaptures":0}},"GimbalOrientation":{"timeBootMs":3849912,"roll":-0.1493888646364212,"pitch":-75.65545654296875,"yaw":-86.0833740234375,"yawAbsolute":5.58056640625,"msg_name":"MOUNT_ORIENTATION","MOUNT_ORIENTATION":{"timeBootMs":3849912,"roll":-0.1493888646364212,"pitch":-75.65545654296875,"yaw":-86.0833740234375,"yawAbsolute":5.58056640625}},"SystemTime":{"seq":1422,"total":2760,"missionState":3,"missionMode":1,"missionId":0,"fenceId":0,"rallyPointsId":0,"msg_name":"MISSION_CURRENT","MISSION_CURRENT":{"seq":1422,"total":2760,"missionState":3,"missionMode":1,"missionId":0,"fenceId":0,"rallyPointsId":0}},"Custom":{"dateTimeCaptureISO":"2025-06-13T09:37:38.238Z"},"_id":"iqi8W4BebxNOzKHA"}
{"timestamp":"2025-06-12T10:53:13.084Z","CameraFeedbackMessage":{"targetSystem":0,"camIdx":0,"imgIdx":344,"lat":598579444,"lng":96543214,"altMsl":569.7699584960938,"altRel":354.1399841308594,"roll":-0.09999999403953552,"pitch":-4.279999732971191,"yaw":127.70999908447266,"focLen":0,"flags":0,"completedCaptures":0,"msg_name":"CAMERA_FEEDBACK","CAMERA_FEEDBACK":{"targetSystem":0,"camIdx":0,"imgIdx":344,"lat":598579444,"lng":96543214,"altMsl":569.7699584960938,"altRel":354.1399841308594,"roll":-0.09999999403953552,"pitch":-4.279999732971191,"yaw":127.70999908447266,"focLen":0,"flags":0,"completedCaptures":0}},"GimbalOrientation":{"timeBootMs":762994,"roll":-0.027343064546585083,"pitch":-74.98855590820312,"yaw":-86.077880859375,"yawAbsolute":41.76865768432617,"msg_name":"MOUNT_ORIENTATION","MOUNT_ORIENTATION":{"timeBootMs":762994,"roll":-0.027343064546585083,"pitch":-74.98855590820312,"yaw":-86.077880859375,"yawAbsolute":41.76865768432617}},"SystemTime":{"seq":1677,"total":2135,"missionState":3,"missionMode":1,"missionId":0,"fenceId":0,"rallyPointsId":0,"msg_name":"MISSION_CURRENT","MISSION_CURRENT":{"seq":1677,"total":2135,"missionState":3,"missionMode":1,"missionId":0,"fenceId":0,"rallyPointsId":0}},"Custom":{"dateTimeCaptureISO":"2025-06-12T10:53:03.817Z"},"_id":"isfqJth6bHUVhE3F"}
{"timestamp":"2025-06-13T10:51:23.292Z","CameraFeedbackMessage":{"targetSystem":0,"camIdx":0,"imgIdx":41,"lat":598677655,"lng":94572737,"altMsl":371.3299865722656,"altRel":28.899999618530273,"roll":-3.1999998092651367,"pitch":-4.139999866485596,"yaw":240.88999938964844,"focLen":0,"flags":0,"completedCaptures":0,"msg_name":"CAMERA_FEEDBACK","CAMERA_FEEDBACK":{"targetSystem":0,"camIdx":0,"imgIdx":41,"lat":598677655,"lng":94572737,"altMsl":371.3299865722656,"altRel":28.899999618530273,"roll":-3.1999998092651367,"pitch":-4.139999866485596,"yaw":240.88999938964844,"focLen":0,"flags":0,"completedCaptures":0}},"GimbalOrientation":{"timeBootMs":180207,"roll":-0.006390226073563099,"pitch":-46.55661392211914,"yaw":-12.7825927734375,"yawAbsolute":-132.89671325683594,"msg_name":"MOUNT_ORIENTATION","MOUNT_ORIENTATION":{"timeBootMs":180207,"roll":-0.006390226073563099,"pitch":-46.55661392211914,"yaw":-12.7825927734375,"yawAbsolute":-132.89671325683594}},"SystemTime":{"seq":2175,"total":2760,"missionState":3,"missionMode":1,"missionId":0,"fenceId":0,"rallyPointsId":0,"msg_name":"MISSION_CURRENT","MISSION_CURRENT":{"seq":2175,"total":2760,"missionState":3,"missionMode":1,"missionId":0,"fenceId":0,"rallyPointsId":0}},"Custom":{"dateTimeCaptureISO":"2025-06-13T10:51:14.119Z"},"_id":"isxTRosBLXq9p8T5"}
{"timestamp":"2025-06-03T12:00:49.272Z","CameraFeedbackMessage":{"targetSystem":0,"camIdx":0,"imgIdx":32,"lat":600054784,"lng":97254940,"altMsl":184.239990234375,"altRel":62.5,"roll":-1.6200000047683716,"pitch":3.369999885559082,"yaw":347.6300048828125,"focLen":0,"flags":0,"completedCaptures":0,"msg_name":"CAMERA_FEEDBACK","CAMERA_FEEDBACK":{"targetSystem":0,"camIdx":0,"imgIdx":32,"lat":600054784,"lng":97254940,"altMsl":184.239990234375,"altRel":62.5,"roll":-1.6200000047683716,"pitch":3.369999885559082,"yaw":347.6300048828125,"focLen":0,"flags":0,"completedCaptures":0}},"GimbalOrientation":{"timeBootMs":3277182,"roll":0.0635487511754036,"pitch":-80.69692993164062,"yaw":88.7310791015625,"yawAbsolute":75.89881134033203,"msg_name":"MOUNT_ORIENTATION","MOUNT_ORIENTATION":{"timeBootMs":3277182,"roll":0.0635487511754036,"pitch":-80.69692993164062,"yaw":88.7310791015625,"yawAbsolute":75.89881134033203}},"SystemTime":{"seq":159,"total":1305,"missionState":3,"missionMode":1,"missionId":0,"fenceId":0,"rallyPointsId":0,"msg_name":"MISSION_CURRENT","MISSION_CURRENT":{"seq":159,"total":1305,"missionState":3,"missionMode":1,"missionId":0,"fenceId":0,"rallyPointsId":0}},"Custom":{"dateTimeCaptureISO":"2025-06-03T12:00:48.765Z"},"_id":"itkyli27yBA9P2Rx"}
{"timestamp":"2025-06-11T10:53:02.260Z","CameraFeedbackMessage":{"targetSystem":0,"camIdx":0,"imgIdx":124,"lat":600476530,"lng":99742998,"altMsl":222.14999389648438,"altRel":111.43000030517578,"roll":0.9399999976158142,"pitch":-3.2799999713897705,"yaw":170.80999755859375,"focLen":0,"flags":0,"completedCaptures":0,"msg_name":"CAMERA_FEEDBACK","CAMERA_FEEDBACK":{"targetSystem":0,"camIdx":0,"imgIdx":124,"lat":600476530,"lng":99742998,"altMsl":222.14999389648438,"altRel":111.43000030517578,"roll":0.9399999976158142,"pitch":-3.2799999713897705,"yaw":170.80999755859375,"focLen":0,"flags":0,"completedCaptures":0}},"GimbalOrientation":{"timeBootMs":2755374,"roll":0.020579596981406212,"pitch":-41.998470306396484,"yaw":-13.656005859375,"yawAbsolute":156.5017547607422,"msg_name":"MOUNT_ORIENTATION","MOUNT_ORIENTATION":{"timeBootMs":2755374,"roll":0.020579596981406212,"pitch":-41.998470306396484,"yaw":-13.656005859375,"yawAbsolute":156.5017547607422}},"SystemTime":{"seq":242,"total":1305,"missionState":3,"missionMode":1,"missionId":0,"fenceId":0,"rallyPointsId":0,"msg_name":"MISSION_CURRENT","MISSION_CURRENT":{"seq":242,"total":1305,"missionState":3,"missionMode":1,"missionId":0,"fenceId":0,"rallyPointsId":0}},"Custom":{"dateTimeCaptureISO":"2025-06-11T10:53:01.982Z"},"_id":"iuJw8mtKEXHs1sNM"}
{"timestamp":"2025-06-13T07:01:37.568Z","CameraFeedbackMessage":{"targetSystem":0,"camIdx":0,"imgIdx":108,"lat":599314480,"lng":95762017,"altMsl":439.1499938964844,"altRel":69.83999633789062,"roll":0.6599999666213989,"pitch":-5.170000076293945,"yaw":328.1000061035156,"focLen":0,"flags":0,"completedCaptures":0,"msg_name":"CAMERA_FEEDBACK","CAMERA_FEEDBACK":{"targetSystem":0,"camIdx":0,"imgIdx":108,"lat":599314480,"lng":95762017,"altMsl":439.1499938964844,"altRel":69.83999633789062,"roll":0.6599999666213989,"pitch":-5.170000076293945,"yaw":328.1000061035156,"focLen":0,"flags":0,"completedCaptures":0}},"GimbalOrientation":{"timeBootMs":2139112,"roll":0.011649721302092075,"pitch":-48.43098068237305,"yaw":-12.6947021484375,"yawAbsolute":-45.27912521362305,"msg_name":"MOUNT_ORIENTATION","MOUNT_ORIENTATION":{"timeBootMs":2139112,"roll":0.011649721302092075,"pitch":-48.43098068237305,"yaw":-12.6947021484375,"yawAbsolute":-45.27912521362305}},"SystemTime":{"seq":470,"total":3158,"missionState":3,"missionMode":1,"missionId":0,"fenceId":0,"rallyPointsId":0,"msg_name":"MISSION_CURRENT","MISSION_CURRENT":{"seq":470,"total":3158,"missionState":3,"missionMode":1,"missionId":0,"fenceId":0,"rallyPointsId":0}},"Custom":{"dateTimeCaptureISO":"2025-06-13T07:01:37.307Z"},"_id":"iufWZv3Z74XILGcp"}
{"timestamp":"2025-06-13T09:51:43.969Z","CameraFeedbackMessage":{"targetSystem":0,"camIdx":0,"imgIdx":507,"lat":598876702,"lng":94914524,"altMsl":350.4100036621094,"altRel":-81.11000061035156,"roll":0.5299999713897705,"pitch":-7.62999963760376,"yaw":217.0699920654297,"focLen":0,"flags":0,"completedCaptures":0,"msg_name":"CAMERA_FEEDBACK","CAMERA_FEEDBACK":{"targetSystem":0,"camIdx":0,"imgIdx":507,"lat":598876702,"lng":94914524,"altMsl":350.4100036621094,"altRel":-81.11000061035156,"roll":0.5299999713897705,"pitch":-7.62999963760376,"yaw":217.0699920654297,"focLen":0,"flags":0,"completedCaptures":0}},"GimbalOrientation":{"timeBootMs":2627016,"roll":0.010691731236875057,"pitch":-41.01451110839844,"yaw":-166.2396240234375,"yawAbsolute":51.6722412109375,"msg_name":"MOUNT_ORIENTATION","MOUNT_ORIENTATION":{"timeBootMs":2627016,"roll":0.010691731236875057,"pitch":-41.01451110839844,"yaw":-166.2396240234375,"yawAbsolute":51.6722412109375}},"SystemTime":{"seq":1665,"total":2760,"missionState":3,"missionMode":1,"missionId":0,"fenceId":0,"rallyPointsId":0,"msg_name":"MISSION_CURRENT","MISSION_CURRENT":{"seq":1665,"total":2760,"missionState":3,"missionMode":1,"missionId":0,"fenceId":0,"rallyPointsId":0}},"Custom":{"dateTimeCaptureISO":"2025-06-13T09:51:34.237Z"},"_id":"iuxl2L1qt6jq6mGE"}
{"timestamp":"2025-06-11T14:33:48.358Z","CameraFeedbackMessage":{"targetSystem":0,"camIdx":0,"imgIdx":130,"lat":599737602,"lng":99675936,"altMsl":179.86000061035156,"altRel":49.32999801635742,"roll":-0.14000000059604645,"pitch":-3.6999998092651367,"yaw":149.38999938964844,"focLen":0,"flags":0,"completedCaptures":0,"msg_name":"CAMERA_FEEDBACK","CAMERA_FEEDBACK":{"targetSystem":0,"camIdx":0,"imgIdx":130,"lat":599737602,"lng":99675936,"altMsl":179.86000061035156,"altRel":49.32999801635742,"roll":-0.14000000059604645,"pitch":-3.6999998092651367,"yaw":149.38999938964844,"focLen":0,"flags":0,"completedCaptures":0}},"GimbalOrientation":{"timeBootMs":3314644,"roll":-0.009627828374505043,"pitch":-75.24788665771484,"yaw":-86.693115234375,"yawAbsolute":62.71917724609375,"msg_name":"MOUNT_ORIENTATION","MOUNT_ORIENTATION":{"timeBootMs":3314644,"roll":-0.009627828374505043,"pitch":-75.24788665771484,"yaw":-86.693115234375,"yawAbsolute":62.71917724609375}},"SystemTime":{"seq":478,"total":561,"missionState":3,"missionMode":1,"missionId":0,"fenceId":0,"rallyPointsId":0,"msg_name":"MISSION_CURRENT","MISSION_CURRENT":{"seq":478,"total":561,"missionState":3,"missionMode":1,"missionId":0,"fenceId":0,"rallyPointsId":0}},"Custom":{"dateTimeCaptureISO":"2025-06-11T14:33:39.153Z"},"_id":"ivntFWZDCMHVW78X"}
{"timestamp":"2025-06-11T09:55:54.290Z","CameraFeedbackMessage":{"targetSystem":0,"camIdx":0,"imgIdx":468,"lat":600219990,"lng":100109880,"altMsl":193.72999572753906,"altRel":112.2699966430664,"roll":-2.6499998569488525,"pitch":-0.8899999856948853,"yaw":200.86000061035156,"focLen":0,"flags":0,"completedCaptures":0,"msg_name":"CAMERA_FEEDBACK","CAMERA_FEEDBACK":{"targetSystem":0,"camIdx":0,"imgIdx":468,"lat":600219990,"lng":100109880,"altMsl":193.72999572753906,"altRel":112.2699966430664,"roll":-2.6499998569488525,"pitch":-0.8899999856948853,"yaw":200.86000061035156,"focLen":0,"flags":0,"completedCaptures":0}},"GimbalOrientation":{"timeBootMs":2970311,"roll":0.008259369060397148,"pitch":-76.54034423828125,"yaw":-93.2025146484375,"yawAbsolute":108.3477783203125,"msg_name":"MOUNT_ORIENTATION","MOUNT_ORIENTATION":{"timeBootMs":2970311,"roll":0.008259369060397148,"pitch":-76.54034423828125,"yaw":-93.2025146484375,"yawAbsolute":108.3477783203125}},"SystemTime":{"seq":486,"total":1006,"missionState":3,"missionMode":1,"missionId":0,"fenceId":0,"rallyPointsId":0,"msg_name":"MISSION_CURRENT","MISSION_CURRENT":{"seq":486,"total":1006,"missionState":3,"missionMode":1,"missionId":0,"fenceId":0,"rallyPointsId":0}},"Custom":{"dateTimeCaptureISO":"2025-06-11T09:55:53.831Z"},"_id":"iwDz7yuQextp97km"}
{"timestamp":"2025-06-13T09:29:05.617Z","CameraFeedbackMessage":{"targetSystem":0,"camIdx":0,"imgIdx":372,"lat":598927030,"lng":95088712,"altMsl":301.8899841308594,"altRel":-129.62998962402344,"roll":4.339999675750732,"pitch":-5.989999771118164,"yaw":116.83999633789062,"focLen":0,"flags":0,"completedCaptures":0,"msg_name":"CAMERA_FEEDBACK","CAMERA_FEEDBACK":{"targetSystem":0,"camIdx":0,"imgIdx":372,"lat":598927030,"lng":95088712,"altMsl":301.8899841308594,"altRel":-129.62998962402344,"roll":4.339999675750732,"pitch":-5.989999771118164,"yaw":116.83999633789062,"focLen":0,"flags":0,"completedCaptures":0}},"GimbalOrientation":{"timeBootMs":2054795,"roll":-0.01651179790496826,"pitch":-46.087162017822266,"yaw":-12.6068115234375,"yawAbsolute":103.59677124023438,"msg_name":"MOUNT_ORIENTATION","MOUNT_ORIENTATION":{"timeBootMs":2054795,"roll":-0.01651179790496826,"pitch":-46.087162017822266,"yaw":-12.6068115234375,"yawAbsolute":103.59677124023438}},"SystemTime":{"seq":1039,"total":2760,"missionState":3,"missionMode":1,"missionId":0,"fenceId":0,"rallyPointsId":0,"msg_name":"MISSION_CURRENT","MISSION_CURRENT":{"seq":1039,"total":2760,"missionState":3,"missionMode":1,"missionId":0,"fenceId":0,"rallyPointsId":0}},"Custom":{"dateTimeCaptureISO":"2025-06-13T09:28:56.238Z"},"_id":"ixDtyORtdZ0PKJud"}
{"timestamp":"2025-06-12T10:58:29.690Z","CameraFeedbackMessage":{"targetSystem":0,"camIdx":0,"imgIdx":387,"lat":598590947,"lng":96770533,"altMsl":426.0099792480469,"altRel":210.37998962402344,"roll":3.2699999809265137,"pitch":0.10999999940395355,"yaw":69.55999755859375,"focLen":0,"flags":0,"completedCaptures":0,"msg_name":"CAMERA_FEEDBACK","CAMERA_FEEDBACK":{"targetSystem":0,"camIdx":0,"imgIdx":387,"lat":598590947,"lng":96770533,"altMsl":426.0099792480469,"altRel":210.37998962402344,"roll":3.2699999809265137,"pitch":0.10999999940395355,"yaw":69.55999755859375,"focLen":0,"flags":0,"completedCaptures":0}},"GimbalOrientation":{"timeBootMs":2413064,"roll":-0.019000638276338577,"pitch":-42.53753662109375,"yaw":-13.304443359375,"yawAbsolute":55.801185607910156,"msg_name":"MOUNT_ORIENTATION","MOUNT_ORIENTATION":{"timeBootMs":2413064,"roll":-0.019000638276338577,"pitch":-42.53753662109375,"yaw":-13.304443359375,"yawAbsolute":55.801185607910156}},"SystemTime":{"seq":1888,"total":2135,"missionState":3,"missionMode":1,"missionId":0,"fenceId":0,"rallyPointsId":0,"msg_name":"MISSION_CURRENT","MISSION_CURRENT":{"seq":1888,"total":2135,"missionState":3,"missionMode":1,"missionId":0,"fenceId":0,"rallyPointsId":0}},"Custom":{"dateTimeCaptureISO":"2025-06-12T10:58:20.317Z"},"_id":"iyuGrtRRtWysmySq"}
{"timestamp":"2025-06-06T10:34:46.720Z","CameraFeedbackMessage":{"targetSystem":0,"camIdx":0,"imgIdx":75,"lat":599673232,"lng":100449070,"altMsl":608.97998046875,"altRel":496.7699890136719,"roll":0.03999999910593033,"pitch":-5.21999979019165,"yaw":89.62999725341797,"focLen":0,"flags":0,"completedCaptures":0,"msg_name":"CAMERA_FEEDBACK","CAMERA_FEEDBACK":{"targetSystem":0,"camIdx":0,"imgIdx":75,"lat":599673232,"lng":100449070,"altMsl":608.97998046875,"altRel":496.7699890136719,"roll":0.03999999910593033,"pitch":-5.21999979019165,"yaw":89.62999725341797,"focLen":0,"flags":0,"completedCaptures":0}},"GimbalOrientation":{"timeBootMs":1724962,"roll":-0.0005540668498724699,"pitch":-56.62791442871094,"yaw":164.937744140625,"yawAbsolute":-104.59908294677734,"msg_name":"MOUNT_ORIENTATION","MOUNT_ORIENTATION":{"timeBootMs":1724962,"roll":-0.0005540668498724699,"pitch":-56.62791442871094,"yaw":164.937744140625,"yawAbsolute":-104.59908294677734}},"SystemTime":{"seq":358,"total":373,"missionState":3,"missionMode":1,"missionId":0,"fenceId":0,"rallyPointsId":0,"msg_name":"MISSION_CURRENT","MISSION_CURRENT":{"seq":358,"total":373,"missionState":3,"missionMode":1,"missionId":0,"fenceId":0,"rallyPointsId":0}},"Custom":{"dateTimeCaptureISO":"2025-06-06T10:34:46.396Z"},"_id":"izGl6GgNZuMFU7Gg"}
{"timestamp":"2025-06-03T12:20:06.164Z","CameraFeedbackMessage":{"targetSystem":0,"camIdx":0,"imgIdx":16,"lat":600178976,"lng":96966316,"altMsl":199.6999969482422,"altRel":63.63999938964844,"roll":-3.7799999713897705,"pitch":5.480000019073486,"yaw":327.80999755859375,"focLen":0,"flags":0,"completedCaptures":0,"msg_name":"CAMERA_FEEDBACK","CAMERA_FEEDBACK":{"targetSystem":0,"camIdx":0,"imgIdx":16,"lat":600178976,"lng":96966316,"altMsl":199.6999969482422,"altRel":63.63999938964844,"roll":-3.7799999713897705,"pitch":5.480000019073486,"yaw":327.80999755859375,"focLen":0,"flags":0,"completedCaptures":0}},"GimbalOrientation":{"timeBootMs":89346,"roll":0.007236112374812365,"pitch":-41.35344314575195,"yaw":166.8658447265625,"yawAbsolute":134.09957885742188,"msg_name":"MOUNT_ORIENTATION","MOUNT_ORIENTATION":{"timeBootMs":89346,"roll":0.007236112374812365,"pitch":-41.35344314575195,"yaw":166.8658447265625,"yawAbsolute":134.09957885742188}},"SystemTime":{"seq":499,"total":1305,"missionState":3,"missionMode":1,"missionId":0,"fenceId":0,"rallyPointsId":0,"msg_name":"MISSION_CURRENT","MISSION_CURRENT":{"seq":499,"total":1305,"missionState":3,"missionMode":1,"missionId":0,"fenceId":0,"rallyPointsId":0}},"Custom":{"dateTimeCaptureISO":"2025-06-03T12:19:56.691Z"},"_id":"iznm1XHVISIgvF1M"}
{"timestamp":"2025-06-11T13:13:09.656Z","CameraFeedbackMessage":{"targetSystem":0,"camIdx":0,"imgIdx":302,"lat":599846384,"lng":99630032,"altMsl":194.61000061035156,"altRel":67.43999481201172,"roll":-1.0799999237060547,"pitch":-3.68999981880188,"yaw":187.20999145507812,"focLen":0,"flags":0,"completedCaptures":0,"msg_name":"CAMERA_FEEDBACK","CAMERA_FEEDBACK":{"targetSystem":0,"camIdx":0,"imgIdx":302,"lat":599846384,"lng":99630032,"altMsl":194.61000061035156,"altRel":67.43999481201172,"roll":-1.0799999237060547,"pitch":-3.68999981880188,"yaw":187.20999145507812,"focLen":0,"flags":0,"completedCaptures":0}},"GimbalOrientation":{"timeBootMs":2618422,"roll":0.0351245179772377,"pitch":-75.7444839477539,"yaw":-83.9739990234375,"yawAbsolute":103.37353515625,"msg_name":"MOUNT_ORIENTATION","MOUNT_ORIENTATION":{"timeBootMs":2618422,"roll":0.0351245179772377,"pitch":-75.7444839477539,"yaw":-83.9739990234375,"yawAbsolute":103.37353515625}},"SystemTime":{"seq":775,"total":908,"missionState":3,"missionMode":1,"missionId":0,"fenceId":0,"rallyPointsId":0,"msg_name":"MISSION_CURRENT","MISSION_CURRENT":{"seq":775,"total":908,"missionState":3,"missionMode":1,"missionId":0,"fenceId":0,"rallyPointsId":0}},"Custom":{"dateTimeCaptureISO":"2025-06-11T13:13:09.300Z"},"_id":"izwu7z4SfnnrT2yF"}
{"timestamp":"2025-06-11T13:47:24.188Z","CameraFeedbackMessage":{"targetSystem":0,"camIdx":0,"imgIdx":495,"lat":599666105,"lng":99389976,"altMsl":170.9499969482422,"altRel":43.779998779296875,"roll":2.2899999618530273,"pitch":-3.7699999809265137,"yaw":170.1199951171875,"focLen":0,"flags":0,"completedCaptures":0,"msg_name":"CAMERA_FEEDBACK","CAMERA_FEEDBACK":{"targetSystem":0,"camIdx":0,"imgIdx":495,"lat":599666105,"lng":99389976,"altMsl":170.9499969482422,"altRel":43.779998779296875,"roll":2.2899999618530273,"pitch":-3.7699999809265137,"yaw":170.1199951171875,"focLen":0,"flags":0,"completedCaptures":0}},"GimbalOrientation":{"timeBootMs":4203324,"roll":-0.0021416260860860348,"pitch":-76.87623596191406,"yaw":-90.2142333984375,"yawAbsolute":80.25616455078125,"msg_name":"MOUNT_ORIENTATION","MOUNT_ORIENTATION":{"timeBootMs":4203324,"roll":-0.0021416260860860348,"pitch":-76.87623596191406,"yaw":-90.2142333984375,"yawAbsolute":80.25616455078125}},"SystemTime":{"seq":783,"total":903,"missionState":3,"missionMode":1,"missionId":0,"fenceId":0,"rallyPointsId":0,"msg_name":"MISSION_CURRENT","MISSION_CURRENT":{"seq":783,"total":903,"missionState":3,"missionMode":1,"missionId":0,"fenceId":0,"rallyPointsId":0}},"Custom":{"dateTimeCaptureISO":"2025-06-11T13:47:23.810Z"},"_id":"j01vzCuLZgdqsbuz"}
{"timestamp":"2025-06-13T09:38:31.923Z","CameraFeedbackMessage":{"targetSystem":0,"camIdx":0,"imgIdx":452,"lat":598870388,"lng":95449527,"altMsl":373.2799987792969,"altRel":-58.23999786376953,"roll":-0.3199999928474426,"pitch":-1.2200000286102295,"yaw":91.0199966430664,"focLen":0,"flags":0,"completedCaptures":0,"msg_name":"CAMERA_FEEDBACK","CAMERA_FEEDBACK":{"targetSystem":0,"camIdx":0,"imgIdx":452,"lat":598870388,"lng":95449527,"altMsl":373.2799987792969,"altRel":-58.23999786376953,"roll":-0.3199999928474426,"pitch":-1.2200000286102295,"yaw":91.0199966430664,"focLen":0,"flags":0,"completedCaptures":0}},"GimbalOrientation":{"timeBootMs":2703388,"roll":-0.06665266305208206,"pitch":-75.85899353027344,"yaw":-85.8197021484375,"yawAbsolute":5.618927001953125,"msg_name":"MOUNT_ORIENTATION","MOUNT_ORIENTATION":{"timeBootMs":2703388,"roll":-0.06665266305208206,"pitch":-75.85899353027344,"yaw":-85.8197021484375,"yawAbsolute":5.618927001953125}},"SystemTime":{"seq":1446,"total":2760,"missionState":3,"missionMode":1,"missionId":0,"fenceId":0,"rallyPointsId":0,"msg_name":"MISSION_CURRENT","MISSION_CURRENT":{"seq":1446,"total":2760,"missionState":3,"missionMode":1,"missionId":0,"fenceId":0,"rallyPointsId":0}},"Custom":{"dateTimeCaptureISO":"2025-06-13T09:38:22.240Z"},"_id":"j0YV3ouJeWR3dQ2i"}
{"timestamp":"2025-06-03T11:59:16.299Z","CameraFeedbackMessage":{"targetSystem":0,"camIdx":0,"imgIdx":25,"lat":600030845,"lng":97253242,"altMsl":172.7899932861328,"altRel":51.04999923706055,"roll":4.389999866485596,"pitch":-0.8700000047683716,"yaw":9.929999351501465,"focLen":0,"flags":0,"completedCaptures":0,"msg_name":"CAMERA_FEEDBACK","CAMERA_FEEDBACK":{"targetSystem":0,"camIdx":0,"imgIdx":25,"lat":600030845,"lng":97253242,"altMsl":172.7899932861328,"altRel":51.04999923706055,"roll":4.389999866485596,"pitch":-0.8700000047683716,"yaw":9.929999351501465,"focLen":0,"flags":0,"completedCaptures":0}},"GimbalOrientation":{"timeBootMs":562816,"roll":-0.02113327383995056,"pitch":-50.021907806396484,"yaw":13.0572509765625,"yawAbsolute":22.873994827270508,"msg_name":"MOUNT_ORIENTATION","MOUNT_ORIENTATION":{"timeBootMs":562816,"roll":-0.02113327383995056,"pitch":-50.021907806396484,"yaw":13.0572509765625,"yawAbsolute":22.873994827270508}},"SystemTime":{"seq":124,"total":1305,"missionState":3,"missionMode":1,"missionId":0,"fenceId":0,"rallyPointsId":0,"msg_name":"MISSION_CURRENT","MISSION_CURRENT":{"seq":124,"total":1305,"missionState":3,"missionMode":1,"missionId":0,"fenceId":0,"rallyPointsId":0}},"Custom":{"dateTimeCaptureISO":"2025-06-03T11:59:15.762Z"},"_id":"j0oDbZbRaSFBGPZU"}
{"timestamp":"2025-06-13T08:05:12.952Z","CameraFeedbackMessage":{"targetSystem":0,"camIdx":0,"imgIdx":481,"lat":599505247,"lng":94771204,"altMsl":432.3599853515625,"altRel":63.04999923706055,"roll":2.690000057220459,"pitch":-6.429999828338623,"yaw":144.97000122070312,"focLen":0,"flags":0,"completedCaptures":0,"msg_name":"CAMERA_FEEDBACK","CAMERA_FEEDBACK":{"targetSystem":0,"camIdx":0,"imgIdx":481,"lat":599505247,"lng":94771204,"altMsl":432.3599853515625,"altRel":63.04999923706055,"roll":2.690000057220459,"pitch":-6.429999828338623,"yaw":144.97000122070312,"focLen":0,"flags":0,"completedCaptures":0}},"GimbalOrientation":{"timeBootMs":3041704,"roll":-0.06392156332731247,"pitch":-76.86481475830078,"yaw":-88.3685302734375,"yawAbsolute":56.84410095214844,"msg_name":"MOUNT_ORIENTATION","MOUNT_ORIENTATION":{"timeBootMs":3041704,"roll":-0.06392156332731247,"pitch":-76.86481475830078,"yaw":-88.3685302734375,"yawAbsolute":56.84410095214844}},"SystemTime":{"seq":2225,"total":3158,"missionState":3,"missionMode":1,"missionId":0,"fenceId":0,"rallyPointsId":0,"msg_name":"MISSION_CURRENT","MISSION_CURRENT":{"seq":2225,"total":3158,"missionState":3,"missionMode":1,"missionId":0,"fenceId":0,"rallyPointsId":0}},"Custom":{"dateTimeCaptureISO":"2025-06-13T08:05:11.304Z"},"_id":"j2EPQLD285pl0Rpz"}
{"timestamp":"2025-06-11T12:30:00.831Z","CameraFeedbackMessage":{"targetSystem":0,"camIdx":0,"imgIdx":89,"lat":599784938,"lng":99904531,"altMsl":159.5500030517578,"altRel":32.380001068115234,"roll":-0.14000000059604645,"pitch":-1.5799999237060547,"yaw":197.5,"focLen":0,"flags":0,"completedCaptures":0,"msg_name":"CAMERA_FEEDBACK","CAMERA_FEEDBACK":{"targetSystem":0,"camIdx":0,"imgIdx":89,"lat":599784938,"lng":99904531,"altMsl":159.5500030517578,"altRel":32.380001068115234,"roll":-0.14000000059604645,"pitch":-1.5799999237060547,"yaw":197.5,"focLen":0,"flags":0,"completedCaptures":0}},"GimbalOrientation":{"timeBootMs":1484184,"roll":0.008120805025100708,"pitch":-75.920654296875,"yaw":-84.8529052734375,"yawAbsolute":112.81689453125,"msg_name":"MOUNT_ORIENTATION","MOUNT_ORIENTATION":{"timeBootMs":1484184,"roll":0.008120805025100708,"pitch":-75.920654296875,"yaw":-84.8529052734375,"yawAbsolute":112.81689453125}},"SystemTime":{"seq":850,"total":1077,"missionState":3,"missionMode":1,"missionId":0,"fenceId":0,"rallyPointsId":0,"msg_name":"MISSION_CURRENT","MISSION_CURRENT":{"seq":850,"total":1077,"missionState":3,"missionMode":1,"missionId":0,"fenceId":0,"rallyPointsId":0}},"Custom":{"dateTimeCaptureISO":"2025-06-11T12:30:00.281Z"},"_id":"j2ZjnM2fbrTXAgEa"}
{"timestamp":"2025-06-13T08:03:16.037Z","CameraFeedbackMessage":{"targetSystem":0,"camIdx":0,"imgIdx":474,"lat":599546953,"lng":94798490,"altMsl":468.3799743652344,"altRel":99.06999969482422,"roll":4.739999771118164,"pitch":0.7699999809265137,"yaw":38.38999938964844,"focLen":0,"flags":0,"completedCaptures":0,"msg_name":"CAMERA_FEEDBACK","CAMERA_FEEDBACK":{"targetSystem":0,"camIdx":0,"imgIdx":474,"lat":599546953,"lng":94798490,"altMsl":468.3799743652344,"altRel":99.06999969482422,"roll":4.739999771118164,"pitch":0.7699999809265137,"yaw":38.38999938964844,"focLen":0,"flags":0,"completedCaptures":0}},"GimbalOrientation":{"timeBootMs":689040,"roll":0.02082107588648796,"pitch":-41.99613571166992,"yaw":-12.6068115234375,"yawAbsolute":24.51202392578125,"msg_name":"MOUNT_ORIENTATION","MOUNT_ORIENTATION":{"timeBootMs":689040,"roll":0.02082107588648796,"pitch":-41.99613571166992,"yaw":-12.6068115234375,"yawAbsolute":24.51202392578125}},"SystemTime":{"seq":2205,"total":3158,"missionState":3,"missionMode":1,"missionId":0,"fenceId":0,"rallyPointsId":0,"msg_name":"MISSION_CURRENT","MISSION_CURRENT":{"seq":2205,"total":3158,"missionState":3,"missionMode":1,"missionId":0,"fenceId":0,"rallyPointsId":0}},"Custom":{"dateTimeCaptureISO":"2025-06-13T08:03:15.307Z"},"_id":"j2eyyLOlk83Z2vlJ"}
{"timestamp":"2025-06-11T10:50:42.320Z","CameraFeedbackMessage":{"targetSystem":0,"camIdx":0,"imgIdx":105,"lat":600530060,"lng":99724879,"altMsl":238,"altRel":127.27999877929688,"roll":0.4399999976158142,"pitch":-0.5099999904632568,"yaw":170.0699920654297,"focLen":0,"flags":0,"completedCaptures":0,"msg_name":"CAMERA_FEEDBACK","CAMERA_FEEDBACK":{"targetSystem":0,"camIdx":0,"imgIdx":105,"lat":600530060,"lng":99724879,"altMsl":238,"altRel":127.27999877929688,"roll":0.4399999976158142,"pitch":-0.5099999904632568,"yaw":170.0699920654297,"focLen":0,"flags":0,"completedCaptures":0}},"GimbalOrientation":{"timeBootMs":713316,"roll":-0.0064634899608790874,"pitch":-40.994815826416016,"yaw":-167.113037109375,"yawAbsolute":4.068132400512695,"msg_name":"MOUNT_ORIENTATION","MOUNT_ORIENTATION":{"timeBootMs":713316,"roll":-0.0064634899608790874,"pitch":-40.994815826416016,"yaw":-167.113037109375,"yawAbsolute":4.068132400512695}},"SystemTime":{"seq":156,"total":1305,"missionState":3,"missionMode":1,"missionId":0,"fenceId":0,"rallyPointsId":0,"msg_name":"MISSION_CURRENT","MISSION_CURRENT":{"seq":156,"total":1305,"missionState":3,"missionMode":1,"missionId":0,"fenceId":0,"rallyPointsId":0}},"Custom":{"dateTimeCaptureISO":"2025-06-11T10:50:41.980Z"},"_id":"j2kFirDgTFCMtoCc"}
{"timestamp":"2025-06-12T08:38:59.319Z","CameraFeedbackMessage":{"targetSystem":0,"camIdx":0,"imgIdx":76,"lat":597705937,"lng":95927778,"altMsl":253.8199920654297,"altRel":69.77999877929688,"roll":3.299999952316284,"pitch":1.3199999332427979,"yaw":79.68999481201172,"focLen":0,"flags":0,"completedCaptures":0,"msg_name":"CAMERA_FEEDBACK","CAMERA_FEEDBACK":{"targetSystem":0,"camIdx":0,"imgIdx":76,"lat":597705937,"lng":95927778,"altMsl":253.8199920654297,"altRel":69.77999877929688,"roll":3.299999952316284,"pitch":1.3199999332427979,"yaw":79.68999481201172,"focLen":0,"flags":0,"completedCaptures":0}},"GimbalOrientation":{"timeBootMs":3544301,"roll":-0.006395319011062384,"pitch":-46.82276153564453,"yaw":-165.706787109375,"yawAbsolute":-85.46312713623047,"msg_name":"MOUNT_ORIENTATION","MOUNT_ORIENTATION":{"timeBootMs":3544301,"roll":-0.006395319011062384,"pitch":-46.82276153564453,"yaw":-165.706787109375,"yawAbsolute":-85.46312713623047}},"SystemTime":{"seq":1671,"total":2302,"missionState":3,"missionMode":1,"missionId":0,"fenceId":0,"rallyPointsId":0,"msg_name":"MISSION_CURRENT","MISSION_CURRENT":{"seq":1671,"total":2302,"missionState":3,"missionMode":1,"missionId":0,"fenceId":0,"rallyPointsId":0}},"Custom":{"dateTimeCaptureISO":"2025-06-12T08:38:48.640Z"},"_id":"j3HthWGXN1ejDmyN"}
{"timestamp":"2025-06-12T12:33:57.679Z","CameraFeedbackMessage":{"targetSystem":0,"camIdx":0,"imgIdx":250,"lat":597798670,"lng":95786880,"altMsl":228.6699981689453,"altRel":46.689998626708984,"roll":-0.10999999940395355,"pitch":-2.5299999713897705,"yaw":210.37998962402344,"focLen":0,"flags":0,"completedCaptures":0,"msg_name":"CAMERA_FEEDBACK","CAMERA_FEEDBACK":{"targetSystem":0,"camIdx":0,"imgIdx":250,"lat":597798670,"lng":95786880,"altMsl":228.6699981689453,"altRel":46.689998626708984,"roll":-0.10999999940395355,"pitch":-2.5299999713897705,"yaw":210.37998962402344,"focLen":0,"flags":0,"completedCaptures":0}},"GimbalOrientation":{"timeBootMs":2236604,"roll":0.006655472330749035,"pitch":-44.04827117919922,"yaw":-12.4310302734375,"yawAbsolute":-162.816650390625,"msg_name":"MOUNT_ORIENTATION","MOUNT_ORIENTATION":{"timeBootMs":2236604,"roll":0.006655472330749035,"pitch":-44.04827117919922,"yaw":-12.4310302734375,"yawAbsolute":-162.816650390625}},"SystemTime":{"seq":1256,"total":2116,"missionState":3,"missionMode":1,"missionId":0,"fenceId":0,"rallyPointsId":0,"msg_name":"MISSION_CURRENT","MISSION_CURRENT":{"seq":1256,"total":2116,"missionState":3,"missionMode":1,"missionId":0,"fenceId":0,"rallyPointsId":0}},"Custom":{"dateTimeCaptureISO":"2025-06-12T12:33:48.204Z"},"_id":"j3PXtXaQTrxLkaHG"}
{"timestamp":"2025-06-12T12:07:49.211Z","CameraFeedbackMessage":{"targetSystem":0,"camIdx":0,"imgIdx":47,"lat":598171341,"lng":95517193,"altMsl":278.3500061035156,"altRel":96.3699951171875,"roll":0.05999999865889549,"pitch":-8.130000114440918,"yaw":99.8499984741211,"focLen":0,"flags":0,"completedCaptures":0,"msg_name":"CAMERA_FEEDBACK","CAMERA_FEEDBACK":{"targetSystem":0,"camIdx":0,"imgIdx":47,"lat":598171341,"lng":95517193,"altMsl":278.3500061035156,"altRel":96.3699951171875,"roll":0.05999999865889549,"pitch":-8.130000114440918,"yaw":99.8499984741211,"focLen":0,"flags":0,"completedCaptures":0}},"GimbalOrientation":{"timeBootMs":742922,"roll":-0.026623480021953583,"pitch":-78.5060043334961,"yaw":-86.1712646484375,"yawAbsolute":13.930877685546875,"msg_name":"MOUNT_ORIENTATION","MOUNT_ORIENTATION":{"timeBootMs":742922,"roll":-0.026623480021953583,"pitch":-78.5060043334961,"yaw":-86.1712646484375,"yawAbsolute":13.930877685546875}},"SystemTime":{"seq":243,"total":2116,"missionState":3,"missionMode":1,"missionId":0,"fenceId":0,"rallyPointsId":0,"msg_name":"MISSION_CURRENT","MISSION_CURRENT":{"seq":243,"total":2116,"missionState":3,"missionMode":1,"missionId":0,"fenceId":0,"rallyPointsId":0}},"Custom":{"dateTimeCaptureISO":"2025-06-12T12:07:39.704Z"},"_id":"j3Ti9ZZh6GqqZWfF"}
{"timestamp":"2025-06-12T08:01:03.003Z","CameraFeedbackMessage":{"targetSystem":0,"camIdx":0,"imgIdx":122,"lat":597452919,"lng":95978502,"altMsl":237.80999755859375,"altRel":66.5999984741211,"roll":-0.3100000023841858,"pitch":-4.659999847412109,"yaw":352.9599914550781,"focLen":0,"flags":0,"completedCaptures":0,"msg_name":"CAMERA_FEEDBACK","CAMERA_FEEDBACK":{"targetSystem":0,"camIdx":0,"imgIdx":122,"lat":597452919,"lng":95978502,"altMsl":237.80999755859375,"altRel":66.5999984741211,"roll":-0.3100000023841858,"pitch":-4.659999847412109,"yaw":352.9599914550781,"focLen":0,"flags":0,"completedCaptures":0}},"GimbalOrientation":{"timeBootMs":3383530,"roll":0.000015340192476287484,"pitch":-74.35004425048828,"yaw":-85.550537109375,"yawAbsolute":-92.22825622558594,"msg_name":"MOUNT_ORIENTATION","MOUNT_ORIENTATION":{"timeBootMs":3383530,"roll":0.000015340192476287484,"pitch":-74.35004425048828,"yaw":-85.550537109375,"yawAbsolute":-92.22825622558594}},"SystemTime":{"seq":632,"total":1305,"missionState":3,"missionMode":1,"missionId":0,"fenceId":0,"rallyPointsId":0,"msg_name":"MISSION_CURRENT","MISSION_CURRENT":{"seq":632,"total":1305,"missionState":3,"missionMode":1,"missionId":0,"fenceId":0,"rallyPointsId":0}},"Custom":{"dateTimeCaptureISO":"2025-06-12T08:00:53.604Z"},"_id":"j3tN0tPiNoJI4UtZ"}
{"timestamp":"2025-06-11T10:48:51.314Z","CameraFeedbackMessage":{"targetSystem":0,"camIdx":0,"imgIdx":90,"lat":600562683,"lng":99691018,"altMsl":227.89999389648438,"altRel":117.18000030517578,"roll":-0.5699999928474426,"pitch":0.05999999865889549,"yaw":150.9499969482422,"focLen":0,"flags":0,"completedCaptures":0,"msg_name":"CAMERA_FEEDBACK","CAMERA_FEEDBACK":{"targetSystem":0,"camIdx":0,"imgIdx":90,"lat":600562683,"lng":99691018,"altMsl":227.89999389648438,"altRel":117.18000030517578,"roll":-0.5699999928474426,"pitch":0.05999999865889549,"yaw":150.9499969482422,"focLen":0,"flags":0,"completedCaptures":0}},"GimbalOrientation":{"timeBootMs":3537533,"roll":-0.014059212058782578,"pitch":-43.95085906982422,"yaw":-167.025146484375,"yawAbsolute":-15.126715660095215,"msg_name":"MOUNT_ORIENTATION","MOUNT_ORIENTATION":{"timeBootMs":3537533,"roll":-0.014059212058782578,"pitch":-43.95085906982422,"yaw":-167.025146484375,"yawAbsolute":-15.126715660095215}},"SystemTime":{"seq":81,"total":1305,"missionState":3,"missionMode":1,"missionId":0,"fenceId":0,"rallyPointsId":0,"msg_name":"MISSION_CURRENT","MISSION_CURRENT":{"seq":81,"total":1305,"missionState":3,"missionMode":1,"missionId":0,"fenceId":0,"rallyPointsId":0}},"Custom":{"dateTimeCaptureISO":"2025-06-11T10:48:50.980Z"},"_id":"j46yQy8J3EhtLkVk"}
{"timestamp":"2025-06-12T10:10:27.291Z","CameraFeedbackMessage":{"targetSystem":0,"camIdx":0,"imgIdx":27,"lat":598448942,"lng":95674085,"altMsl":233.20999145507812,"altRel":17.579999923706055,"roll":4.089999675750732,"pitch":-1.1999999284744263,"yaw":27.299999237060547,"focLen":0,"flags":0,"completedCaptures":0,"msg_name":"CAMERA_FEEDBACK","CAMERA_FEEDBACK":{"targetSystem":0,"camIdx":0,"imgIdx":27,"lat":598448942,"lng":95674085,"altMsl":233.20999145507812,"altRel":17.579999923706055,"roll":4.089999675750732,"pitch":-1.1999999284744263,"yaw":27.299999237060547,"focLen":0,"flags":0,"completedCaptures":0}},"GimbalOrientation":{"timeBootMs":3496740,"roll":-0.013880451209843159,"pitch":-44.955169677734375,"yaw":-166.849365234375,"yawAbsolute":-138.6542510986328,"msg_name":"MOUNT_ORIENTATION","MOUNT_ORIENTATION":{"timeBootMs":3496740,"roll":-0.013880451209843159,"pitch":-44.955169677734375,"yaw":-166.849365234375,"yawAbsolute":-138.6542510986328}},"SystemTime":{"seq":124,"total":2135,"missionState":3,"missionMode":1,"missionId":0,"fenceId":0,"rallyPointsId":0,"msg_name":"MISSION_CURRENT","MISSION_CURRENT":{"seq":124,"total":2135,"missionState":3,"missionMode":1,"missionId":0,"fenceId":0,"rallyPointsId":0}},"Custom":{"dateTimeCaptureISO":"2025-06-12T10:10:17.817Z"},"_id":"j5KKAn4uq3pajtyD"}
{"timestamp":"2025-06-13T08:35:34.039Z","CameraFeedbackMessage":{"targetSystem":0,"camIdx":0,"imgIdx":62,"lat":599521650,"lng":95103222,"altMsl":507.94000244140625,"altRel":76.41999816894531,"roll":1.7599999904632568,"pitch":1.090000033378601,"yaw":55.63999938964844,"focLen":0,"flags":0,"completedCaptures":0,"msg_name":"CAMERA_FEEDBACK","CAMERA_FEEDBACK":{"targetSystem":0,"camIdx":0,"imgIdx":62,"lat":599521650,"lng":95103222,"altMsl":507.94000244140625,"altRel":76.41999816894531,"roll":1.7599999904632568,"pitch":1.090000033378601,"yaw":55.63999938964844,"focLen":0,"flags":0,"completedCaptures":0}},"GimbalOrientation":{"timeBootMs":3663760,"roll":-0.03174649924039841,"pitch":-76.40247344970703,"yaw":-93.5540771484375,"yawAbsolute":-37.5770263671875,"msg_name":"MOUNT_ORIENTATION","MOUNT_ORIENTATION":{"timeBootMs":3663760,"roll":-0.03174649924039841,"pitch":-76.40247344970703,"yaw":-93.5540771484375,"yawAbsolute":-37.5770263671875}},"SystemTime":{"seq":2703,"total":3158,"missionState":3,"missionMode":1,"missionId":0,"fenceId":0,"rallyPointsId":0,"msg_name":"MISSION_CURRENT","MISSION_CURRENT":{"seq":2703,"total":3158,"missionState":3,"missionMode":1,"missionId":0,"fenceId":0,"rallyPointsId":0}},"Custom":{"dateTimeCaptureISO":"2025-06-13T08:35:24.798Z"},"_id":"j5ygPe6zHSsSzPUU"}
{"timestamp":"2025-06-13T06:54:07.397Z","CameraFeedbackMessage":{"targetSystem":0,"camIdx":0,"imgIdx":53,"lat":599263128,"lng":95904599,"altMsl":405.8800048828125,"altRel":36.56999969482422,"roll":0.3199999928474426,"pitch":-1.2400000095367432,"yaw":275.30999755859375,"focLen":0,"flags":0,"completedCaptures":0,"msg_name":"CAMERA_FEEDBACK","CAMERA_FEEDBACK":{"targetSystem":0,"camIdx":0,"imgIdx":53,"lat":599263128,"lng":95904599,"altMsl":405.8800048828125,"altRel":36.56999969482422,"roll":0.3199999928474426,"pitch":-1.2400000095367432,"yaw":275.30999755859375,"focLen":0,"flags":0,"completedCaptures":0}},"GimbalOrientation":{"timeBootMs":3809503,"roll":-0.007216686382889748,"pitch":-45.85225296020508,"yaw":-166.8548583984375,"yawAbsolute":109.28570556640625,"msg_name":"MOUNT_ORIENTATION","MOUNT_ORIENTATION":{"timeBootMs":3809503,"roll":-0.007216686382889748,"pitch":-45.85225296020508,"yaw":-166.8548583984375,"yawAbsolute":109.28570556640625}},"SystemTime":{"seq":198,"total":3158,"missionState":3,"missionMode":1,"missionId":0,"fenceId":0,"rallyPointsId":0,"msg_name":"MISSION_CURRENT","MISSION_CURRENT":{"seq":198,"total":3158,"missionState":3,"missionMode":1,"missionId":0,"fenceId":0,"rallyPointsId":0}},"Custom":{"dateTimeCaptureISO":"2025-06-13T06:54:06.804Z"},"_id":"j6dHPall49Q2c2Rp"}
{"timestamp":"2025-06-11T11:39:03.652Z","CameraFeedbackMessage":{"targetSystem":0,"camIdx":0,"imgIdx":394,"lat":600200246,"lng":100061113,"altMsl":198.92999267578125,"altRel":88.20999908447266,"roll":0.47999998927116394,"pitch":-0.07999999821186066,"yaw":311.3299865722656,"focLen":0,"flags":0,"completedCaptures":0,"msg_name":"CAMERA_FEEDBACK","CAMERA_FEEDBACK":{"targetSystem":0,"camIdx":0,"imgIdx":394,"lat":600200246,"lng":100061113,"altMsl":198.92999267578125,"altRel":88.20999908447266,"roll":0.47999998927116394,"pitch":-0.07999999821186066,"yaw":311.3299865722656,"focLen":0,"flags":0,"completedCaptures":0}},"GimbalOrientation":{"timeBootMs":2817972,"roll":-0.010040787048637867,"pitch":-43.97331237792969,"yaw":-166.585693359375,"yawAbsolute":145.3813018798828,"msg_name":"MOUNT_ORIENTATION","MOUNT_ORIENTATION":{"timeBootMs":2817972,"roll":-0.010040787048637867,"pitch":-43.97331237792969,"yaw":-166.585693359375,"yawAbsolute":145.3813018798828}},"SystemTime":{"seq":159,"total":1077,"missionState":3,"missionMode":1,"missionId":0,"fenceId":0,"rallyPointsId":0,"msg_name":"MISSION_CURRENT","MISSION_CURRENT":{"seq":159,"total":1077,"missionState":3,"missionMode":1,"missionId":0,"fenceId":0,"rallyPointsId":0}},"Custom":{"dateTimeCaptureISO":"2025-06-11T11:39:03.040Z"},"_id":"j6nUEocH1I7vBT7a"}
{"timestamp":"2025-06-12T10:40:36.309Z","CameraFeedbackMessage":{"targetSystem":0,"camIdx":0,"imgIdx":241,"lat":598626554,"lng":95977540,"altMsl":456.0299987792969,"altRel":240.39999389648438,"roll":3.1499998569488525,"pitch":0.19999998807907104,"yaw":83.9000015258789,"focLen":0,"flags":0,"completedCaptures":0,"msg_name":"CAMERA_FEEDBACK","CAMERA_FEEDBACK":{"targetSystem":0,"camIdx":0,"imgIdx":241,"lat":598626554,"lng":95977540,"altMsl":456.0299987792969,"altRel":240.39999389648438,"roll":3.1499998569488525,"pitch":0.19999998807907104,"yaw":83.9000015258789,"focLen":0,"flags":0,"completedCaptures":0}},"GimbalOrientation":{"timeBootMs":2479790,"roll":-0.000022732128854840994,"pitch":-36.41223907470703,"yaw":-167.816162109375,"yawAbsolute":-82.60965728759766,"msg_name":"MOUNT_ORIENTATION","MOUNT_ORIENTATION":{"timeBootMs":2479790,"roll":-0.000022732128854840994,"pitch":-36.41223907470703,"yaw":-167.816162109375,"yawAbsolute":-82.60965728759766}},"SystemTime":{"seq":1216,"total":2135,"missionState":3,"missionMode":1,"missionId":0,"fenceId":0,"rallyPointsId":0,"msg_name":"MISSION_CURRENT","MISSION_CURRENT":{"seq":1216,"total":2135,"missionState":3,"missionMode":1,"missionId":0,"fenceId":0,"rallyPointsId":0}},"Custom":{"dateTimeCaptureISO":"2025-06-12T10:40:26.817Z"},"_id":"j6zMS2xZ5Op3qqaE"}
{"timestamp":"2025-06-11T09:33:22.339Z","CameraFeedbackMessage":{"targetSystem":0,"camIdx":0,"imgIdx":341,"lat":600313413,"lng":100341511,"altMsl":154.4499969482422,"altRel":72.98999786376953,"roll":3.4800000190734863,"pitch":0.8100000023841858,"yaw":342.8999938964844,"focLen":0,"flags":0,"completedCaptures":0,"msg_name":"CAMERA_FEEDBACK","CAMERA_FEEDBACK":{"targetSystem":0,"camIdx":0,"imgIdx":341,"lat":600313413,"lng":100341511,"altMsl":154.4499969482422,"altRel":72.98999786376953,"roll":3.4800000190734863,"pitch":0.8100000023841858,"yaw":342.8999938964844,"focLen":0,"flags":0,"completedCaptures":0}},"GimbalOrientation":{"timeBootMs":3467067,"roll":0.0008883977425284684,"pitch":-39.6478157043457,"yaw":-167.9095458984375,"yawAbsolute":176.98971557617188,"msg_name":"MOUNT_ORIENTATION","MOUNT_ORIENTATION":{"timeBootMs":3467067,"roll":0.0008883977425284684,"pitch":-39.6478157043457,"yaw":-167.9095458984375,"yawAbsolute":176.98971557617188}},"SystemTime":{"seq":647,"total":768,"missionState":3,"missionMode":1,"missionId":0,"fenceId":0,"rallyPointsId":0,"msg_name":"MISSION_CURRENT","MISSION_CURRENT":{"seq":647,"total":768,"missionState":3,"missionMode":1,"missionId":0,"fenceId":0,"rallyPointsId":0}},"Custom":{"dateTimeCaptureISO":"2025-06-11T09:33:21.836Z"},"_id":"j7oGqoYQEFz6Y7Yt"}
{"timestamp":"2025-06-11T12:23:40.742Z","CameraFeedbackMessage":{"targetSystem":0,"camIdx":0,"imgIdx":44,"lat":599909365,"lng":99949088,"altMsl":187.5699920654297,"altRel":60.39999771118164,"roll":-0.03999999910593033,"pitch":-3.2100000381469727,"yaw":188.64999389648438,"focLen":0,"flags":0,"completedCaptures":0,"msg_name":"CAMERA_FEEDBACK","CAMERA_FEEDBACK":{"targetSystem":0,"camIdx":0,"imgIdx":44,"lat":599909365,"lng":99949088,"altMsl":187.5699920654297,"altRel":60.39999771118164,"roll":-0.03999999910593033,"pitch":-3.2100000381469727,"yaw":188.64999389648438,"focLen":0,"flags":0,"completedCaptures":0}},"GimbalOrientation":{"timeBootMs":2055526,"roll":0.01017704326659441,"pitch":-76.55658721923828,"yaw":-85.7318115234375,"yawAbsolute":103.26885986328125,"msg_name":"MOUNT_ORIENTATION","MOUNT_ORIENTATION":{"timeBootMs":2055526,"roll":0.01017704326659441,"pitch":-76.55658721923828,"yaw":-85.7318115234375,"yawAbsolute":103.26885986328125}},"SystemTime":{"seq":669,"total":1077,"missionState":3,"missionMode":1,"missionId":0,"fenceId":0,"rallyPointsId":0,"msg_name":"MISSION_CURRENT","MISSION_CURRENT":{"seq":669,"total":1077,"missionState":3,"missionMode":1,"missionId":0,"fenceId":0,"rallyPointsId":0}},"Custom":{"dateTimeCaptureISO":"2025-06-11T12:23:40.279Z"},"_id":"j7yYccS54IasHovT"}
{"timestamp":"2025-06-11T12:19:56.588Z","CameraFeedbackMessage":{"targetSystem":0,"camIdx":0,"imgIdx":16,"lat":599955766,"lng":100022946,"altMsl":183.6699981689453,"altRel":56.5,"roll":2.3399999141693115,"pitch":-0.11999999731779099,"yaw":255.29998779296875,"focLen":0,"flags":0,"completedCaptures":0,"msg_name":"CAMERA_FEEDBACK","CAMERA_FEEDBACK":{"targetSystem":0,"camIdx":0,"imgIdx":16,"lat":599955766,"lng":100022946,"altMsl":183.6699981689453,"altRel":56.5,"roll":2.3399999141693115,"pitch":-0.11999999731779099,"yaw":255.29998779296875,"focLen":0,"flags":0,"completedCaptures":0}},"GimbalOrientation":{"timeBootMs":3052333,"roll":0.4029810428619385,"pitch":-44.389793395996094,"yaw":-80.9857177734375,"yawAbsolute":168.49781799316406,"msg_name":"MOUNT_ORIENTATION","MOUNT_ORIENTATION":{"timeBootMs":3052333,"roll":0.4029810428619385,"pitch":-44.389793395996094,"yaw":-80.9857177734375,"yawAbsolute":168.49781799316406}},"SystemTime":{"seq":552,"total":1077,"missionState":3,"missionMode":1,"missionId":0,"fenceId":0,"rallyPointsId":0,"msg_name":"MISSION_CURRENT","MISSION_CURRENT":{"seq":552,"total":1077,"missionState":3,"missionMode":1,"missionId":0,"fenceId":0,"rallyPointsId":0}},"Custom":{"dateTimeCaptureISO":"2025-06-11T12:19:56.279Z"},"_id":"j8oTUOnMN6d4wMrS"}
{"timestamp":"2025-06-11T11:09:38.287Z","CameraFeedbackMessage":{"targetSystem":0,"camIdx":0,"imgIdx":235,"lat":600406467,"lng":99951985,"altMsl":195.86000061035156,"altRel":85.13999938964844,"roll":3.859999895095825,"pitch":-3.8899998664855957,"yaw":19.19999885559082,"focLen":0,"flags":0,"completedCaptures":0,"msg_name":"CAMERA_FEEDBACK","CAMERA_FEEDBACK":{"targetSystem":0,"camIdx":0,"imgIdx":235,"lat":600406467,"lng":99951985,"altMsl":195.86000061035156,"altRel":85.13999938964844,"roll":3.859999895095825,"pitch":-3.8899998664855957,"yaw":19.19999885559082,"focLen":0,"flags":0,"completedCaptures":0}},"GimbalOrientation":{"timeBootMs":2584864,"roll":-0.030690889805555344,"pitch":-74.98548889160156,"yaw":-90.208740234375,"yawAbsolute":-70.94082641601562,"msg_name":"MOUNT_ORIENTATION","MOUNT_ORIENTATION":{"timeBootMs":2584864,"roll":-0.030690889805555344,"pitch":-74.98548889160156,"yaw":-90.208740234375,"yawAbsolute":-70.94082641601562}},"SystemTime":{"seq":790,"total":1305,"missionState":3,"missionMode":1,"missionId":0,"fenceId":0,"rallyPointsId":0,"msg_name":"MISSION_CURRENT","MISSION_CURRENT":{"seq":790,"total":1305,"missionState":3,"missionMode":1,"missionId":0,"fenceId":0,"rallyPointsId":0}},"Custom":{"dateTimeCaptureISO":"2025-06-11T11:09:37.980Z"},"_id":"j8qR7Xfe6GF4w8Mo"}
{"timestamp":"2025-06-03T11:58:02.536Z","CameraFeedbackMessage":{"targetSystem":0,"camIdx":0,"imgIdx":19,"lat":600011584,"lng":97254007,"altMsl":189.80999755859375,"altRel":68.06999969482422,"roll":-1.149999976158142,"pitch":0.4899999797344208,"yaw":350.41998291015625,"focLen":0,"flags":0,"completedCaptures":0,"msg_name":"CAMERA_FEEDBACK","CAMERA_FEEDBACK":{"targetSystem":0,"camIdx":0,"imgIdx":19,"lat":600011584,"lng":97254007,"altMsl":189.80999755859375,"altRel":68.06999969482422,"roll":-1.149999976158142,"pitch":0.4899999797344208,"yaw":350.41998291015625,"focLen":0,"flags":0,"completedCaptures":0}},"GimbalOrientation":{"timeBootMs":1053070,"roll":0.01265011541545391,"pitch":-47.91567611694336,"yaw":12.6177978515625,"yawAbsolute":4.007494926452637,"msg_name":"MOUNT_ORIENTATION","MOUNT_ORIENTATION":{"timeBootMs":1053070,"roll":0.01265011541545391,"pitch":-47.91567611694336,"yaw":12.6177978515625,"yawAbsolute":4.007494926452637}},"SystemTime":{"seq":94,"total":1305,"missionState":3,"missionMode":1,"missionId":0,"fenceId":0,"rallyPointsId":0,"msg_name":"MISSION_CURRENT","MISSION_CURRENT":{"seq":94,"total":1305,"missionState":3,"missionMode":1,"missionId":0,"fenceId":0,"rallyPointsId":0}},"Custom":{"dateTimeCaptureISO":"2025-06-03T11:58:02.265Z"},"_id":"j93PmEyR8M3nAlTR"}
{"timestamp":"2025-06-03T12:56:28.144Z","CameraFeedbackMessage":{"targetSystem":0,"camIdx":0,"imgIdx":178,"lat":600277597,"lng":97107311,"altMsl":177.01998901367188,"altRel":40.959999084472656,"roll":1.1299999952316284,"pitch":-6.179999828338623,"yaw":132.38999938964844,"focLen":0,"flags":0,"completedCaptures":0,"msg_name":"CAMERA_FEEDBACK","CAMERA_FEEDBACK":{"targetSystem":0,"camIdx":0,"imgIdx":178,"lat":600277597,"lng":97107311,"altMsl":177.01998901367188,"altRel":40.959999084472656,"roll":1.1299999952316284,"pitch":-6.179999828338623,"yaw":132.38999938964844,"focLen":0,"flags":0,"completedCaptures":0}},"GimbalOrientation":{"timeBootMs":1600919,"roll":0.007691004313528538,"pitch":-44.420249938964844,"yaw":-168.2611083984375,"yawAbsolute":-34.2347297668457,"msg_name":"MOUNT_ORIENTATION","MOUNT_ORIENTATION":{"timeBootMs":1600919,"roll":0.007691004313528538,"pitch":-44.420249938964844,"yaw":-168.2611083984375,"yawAbsolute":-34.2347297668457}},"SystemTime":{"seq":1265,"total":1305,"missionState":3,"missionMode":1,"missionId":0,"fenceId":0,"rallyPointsId":0,"msg_name":"MISSION_CURRENT","MISSION_CURRENT":{"seq":1265,"total":1305,"missionState":3,"missionMode":1,"missionId":0,"fenceId":0,"rallyPointsId":0}},"Custom":{"dateTimeCaptureISO":"2025-06-03T12:56:18.691Z"},"_id":"j97Ug8hu7gpkjRrr"}
{"timestamp":"2025-06-11T09:00:30.352Z","CameraFeedbackMessage":{"targetSystem":0,"camIdx":0,"imgIdx":154,"lat":600085179,"lng":100295943,"altMsl":118.88999938964844,"altRel":37.43000030517578,"roll":1.8199999332427979,"pitch":-2.200000047683716,"yaw":4.119999885559082,"focLen":0,"flags":0,"completedCaptures":0,"msg_name":"CAMERA_FEEDBACK","CAMERA_FEEDBACK":{"targetSystem":0,"camIdx":0,"imgIdx":154,"lat":600085179,"lng":100295943,"altMsl":118.88999938964844,"altRel":37.43000030517578,"roll":1.8199999332427979,"pitch":-2.200000047683716,"yaw":4.119999885559082,"focLen":0,"flags":0,"completedCaptures":0}},"GimbalOrientation":{"timeBootMs":2886402,"roll":0.004565089009702206,"pitch":-43.48029327392578,"yaw":-167.3822021484375,"yawAbsolute":-161.94081115722656,"msg_name":"MOUNT_ORIENTATION","MOUNT_ORIENTATION":{"timeBootMs":2886402,"roll":0.004565089009702206,"pitch":-43.48029327392578,"yaw":-167.3822021484375,"yawAbsolute":-161.94081115722656}},"SystemTime":{"seq":855,"total":1305,"missionState":3,"missionMode":1,"missionId":0,"fenceId":0,"rallyPointsId":0,"msg_name":"MISSION_CURRENT","MISSION_CURRENT":{"seq":855,"total":1305,"missionState":3,"missionMode":1,"missionId":0,"fenceId":0,"rallyPointsId":0}},"Custom":{"dateTimeCaptureISO":"2025-06-11T09:00:30.116Z"},"_id":"j9NVSg6cSGaW4ugJ"}
